{
"type": "FeatureCollection",
"name": "Coast_Guard_dep",
"crs": { "type": "name", "properties": { "name": "urn:ogc:def:crs:OGC:1.3:CRS84" } },
"features": [
{ "type": "Feature", "properties": { "ID": 1, "Area": "海洋巡防總局", "Name": "第1海巡隊", "Zip_code": 20248, "Address": "基隆市中正路249號", "X": 121.761563, "Y": 25.144293, "Note": "n\/a", "Tel": "(02)24624963" }, "geometry": { "type": "Point", "coordinates": [ 121.761563, 25.144293 ] } },
{ "type": "Feature", "properties": { "ID": 2, "Area": "海洋巡防總局", "Name": "第2海巡隊", "Zip_code": 25155, "Address": "新北市淡水區觀海路251號", "X": 121.412936, "Y": 25.184297, "Note": "n\/a", "Tel": "(02)28051439" }, "geometry": { "type": "Point", "coordinates": [ 121.412936, 25.184297 ] } },
{ "type": "Feature", "properties": { "ID": 3, "Area": "海洋巡防總局", "Name": "第3海巡隊", "Zip_code": 43650, "Address": "台中市清水區北堤路1-2", "X": 120.539023, "Y": 24.289825, "Note": "n\/a", "Tel": "(04)26572783" }, "geometry": { "type": "Point", "coordinates": [ 120.539023, 24.289825 ] } },
{ "type": "Feature", "properties": { "ID": 4, "Area": "海洋巡防總局", "Name": "第4海巡隊", "Zip_code": 70259, "Address": "台南市南區鯤鯓路601號", "X": 120.176927, "Y": 22.959095, "Note": "n\/a", "Tel": "(06)2620217" }, "geometry": { "type": "Point", "coordinates": [ 120.176927, 22.959095 ] } },
{ "type": "Feature", "properties": { "ID": 5, "Area": "海洋巡防總局", "Name": "第5海巡隊", "Zip_code": 80544, "Address": "高雄市旗津區北汕巷50-72號", "X": 120.289233, "Y": 22.587914, "Note": "n\/a", "Tel": "(07)5719553" }, "geometry": { "type": "Point", "coordinates": [ 120.289233, 22.587914 ] } },
{ "type": "Feature", "properties": { "ID": 6, "Area": "海洋巡防總局", "Name": "第6海巡隊", "Zip_code": 97064, "Address": "花蓮市順興路43號", "X": 121.628193, "Y": 23.991983, "Note": "n\/a", "Tel": "(03)8233781" }, "geometry": { "type": "Point", "coordinates": [ 121.628193, 23.991983 ] } },
{ "type": "Feature", "properties": { "ID": 7, "Area": "海洋巡防總局", "Name": "第7海巡隊", "Zip_code": 27046, "Address": "宜蘭縣蘇澳鎮港區7之1號", "X": 121.858116, "Y": 24.595798, "Note": "n\/a", "Tel": "(039)9961541" }, "geometry": { "type": "Point", "coordinates": [ 121.858116, 24.595798 ] } },
{ "type": "Feature", "properties": { "ID": 8, "Area": "海洋巡防總局", "Name": "第8海巡隊", "Zip_code": 88056, "Address": "澎湖縣馬公市大案山200號", "X": 119.573113, "Y": 23.551311, "Note": "n\/a", "Tel": "(06)9215221" }, "geometry": { "type": "Point", "coordinates": [ 119.573113, 23.551311 ] } },
{ "type": "Feature", "properties": { "ID": 9, "Area": "海洋巡防總局", "Name": "第9海巡隊", "Zip_code": 89141, "Address": "金門縣金湖鎮料羅港1號", "X": 118.409884, "Y": 24.435934, "Note": "n\/a", "Tel": "(082)334261" }, "geometry": { "type": "Point", "coordinates": [ 118.409884, 24.435934 ] } },
{ "type": "Feature", "properties": { "ID": 10, "Area": "海洋巡防總局", "Name": "第10海巡隊", "Zip_code": 20941, "Address": "連江縣南竿鄉福沃村8鄰138號", "X": 119.939563, "Y": 26.154418, "Note": "n\/a", "Tel": "(083)622647" }, "geometry": { "type": "Point", "coordinates": [ 119.939563, 26.154418 ] } },
{ "type": "Feature", "properties": { "ID": 11, "Area": "海洋巡防總局", "Name": "第11海巡隊", "Zip_code": 25155, "Address": "新北市淡水區中正路1段63巷20號", "X": 121.42211, "Y": 25.177095, "Note": "n\/a", "Tel": "(02)28053990" }, "geometry": { "type": "Point", "coordinates": [ 121.42211, 25.177095 ] } },
{ "type": "Feature", "properties": { "ID": 12, "Area": "海洋巡防總局", "Name": "第12海巡隊", "Zip_code": 30057, "Address": "新竹市新港南路99號", "X": 120.920006, "Y": 24.845994, "Note": "n\/a", "Tel": "(03)5362570" }, "geometry": { "type": "Point", "coordinates": [ 120.920006, 24.845994 ] } },
{ "type": "Feature", "properties": { "ID": 13, "Area": "海洋巡防總局", "Name": "第13海巡隊", "Zip_code": 62541, "Address": "嘉義縣布袋鎮順安路79巷2號", "X": 120.156159, "Y": 23.37998, "Note": "n\/a", "Tel": "(05)3472199" }, "geometry": { "type": "Point", "coordinates": [ 120.156159, 23.37998 ] } },
{ "type": "Feature", "properties": { "ID": 14, "Area": "海洋巡防總局", "Name": "第14海巡隊", "Zip_code": 94645, "Address": "屏東縣恆春鎮大光路79之44號", "X": 120.742674, "Y": 21.945012, "Note": "n\/a", "Tel": "(08)8867125" }, "geometry": { "type": "Point", "coordinates": [ 120.742674, 21.945012 ] } },
{ "type": "Feature", "properties": { "ID": 15, "Area": "海洋巡防總局", "Name": "第15海巡隊", "Zip_code": 95057, "Address": "台東市富岡街296之1號", "X": 121.191553, "Y": 22.791864, "Note": "n\/a", "Tel": "(089)280356" }, "geometry": { "type": "Point", "coordinates": [ 121.191553, 22.791864 ] } },
{ "type": "Feature", "properties": { "ID": 16, "Area": "海洋巡防總局", "Name": "第16海巡隊", "Zip_code": 22844, "Address": "新北市貢寮區新港街128號", "X": 121.945979, "Y": 25.016876, "Note": "n\/a", "Tel": "(02)24902010" }, "geometry": { "type": "Point", "coordinates": [ 121.945979, 25.016876 ] } },
{ "type": "Feature", "properties": { "ID": 17, "Area": "海洋巡防總局", "Name": "第17海巡隊", "Zip_code": 85243, "Address": "高雄市茄萣區崎漏里正遠路1號", "X": 120.199338, "Y": 22.868013, "Note": "直屬船隊", "Tel": "(07)6988006" }, "geometry": { "type": "Point", "coordinates": [ 120.199338, 22.868013 ] } },
{ "type": "Feature", "properties": { "ID": 18, "Area": "海洋巡防總局", "Name": "第18海巡隊", "Zip_code": 20041, "Address": "基隆市仁愛區港西街6號216室", "X": 121.740335, "Y": 25.132989, "Note": "北部機動", "Tel": "(02)24215002" }, "geometry": { "type": "Point", "coordinates": [ 121.740335, 25.132989 ] } },
{ "type": "Feature", "properties": { "ID": 19, "Area": "海洋巡防總局", "Name": "第19海巡隊", "Zip_code": 43650, "Address": "台中市清水區北堤路1-3號", "X": 120.539023, "Y": 24.289825, "Note": "中部機動", "Tel": "(04)26583582" }, "geometry": { "type": "Point", "coordinates": [ 120.539023, 24.289825 ] } },
{ "type": "Feature", "properties": { "ID": 20, "Area": "海洋巡防總局", "Name": "第20海巡隊", "Zip_code": 80441, "Address": "高雄市鼓山區蓬萊路32號", "X": 120.279246, "Y": 22.620358, "Note": "南部機動", "Tel": "(07)5514141" }, "geometry": { "type": "Point", "coordinates": [ 120.279246, 22.620358 ] } },
{ "type": "Feature", "properties": { "ID": 21, "Area": "海洋巡防總局", "Name": "第21海巡隊", "Zip_code": 97048, "Address": "花蓮縣花蓮市北濱街31號", "X": 121.614489, "Y": 23.97458, "Note": "東部機動", "Tel": "(03)8340180" }, "geometry": { "type": "Point", "coordinates": [ 121.614489, 23.97458 ] } },
{ "type": "Feature", "properties": { "ID": 22, "Area": "北部地區巡防局", "Name": "芙蓉安檢所", "Zip_code": 209, "Address": "連江縣南竿鄉四維村24-1號", "X": 119.918603, "Y": 26.169189, "Note": "n\/a", "Tel": "(083)622407" }, "geometry": { "type": "Point", "coordinates": [ 119.918603, 26.169189 ] } },
{ "type": "Feature", "properties": { "ID": 23, "Area": "北部地區巡防局", "Name": "山隴安檢所", "Zip_code": 209, "Address": "連江縣南竿鄉介壽村374-1號", "X": 119.949832, "Y": 26.154376, "Note": "n\/a", "Tel": "(083)622149" }, "geometry": { "type": "Point", "coordinates": [ 119.949832, 26.154376 ] } },
{ "type": "Feature", "properties": { "ID": 24, "Area": "北部地區巡防局", "Name": "福澳安檢所", "Zip_code": 209, "Address": "連江縣南竿鄉經澤村129號", "X": 119.951371, "Y": 26.160198, "Note": "n\/a", "Tel": "(083)623490" }, "geometry": { "type": "Point", "coordinates": [ 119.951371, 26.160198 ] } },
{ "type": "Feature", "properties": { "ID": 25, "Area": "北部地區巡防局", "Name": "白沙安檢所", "Zip_code": 210, "Address": "連江縣北竿鄉白沙村72號", "X": 119.969717, "Y": 26.202029, "Note": "n\/a", "Tel": "(083)655260" }, "geometry": { "type": "Point", "coordinates": [ 119.969717, 26.202029 ] } },
{ "type": "Feature", "properties": { "ID": 26, "Area": "北部地區巡防局", "Name": "橋仔安檢所", "Zip_code": 210, "Address": "連江縣北竿鄉橋仔村1號", "X": 119.987061, "Y": 26.272912, "Note": "n\/a", "Tel": "(083)655249" }, "geometry": { "type": "Point", "coordinates": [ 119.987061, 26.272912 ] } },
{ "type": "Feature", "properties": { "ID": 27, "Area": "北部地區巡防局", "Name": "青帆安檢所", "Zip_code": 211, "Address": "連江縣莒光鄉青帆村31-1號", "X": 119.935024, "Y": 25.971849, "Note": "n\/a", "Tel": "(083)688377" }, "geometry": { "type": "Point", "coordinates": [ 119.935024, 25.971849 ] } },
{ "type": "Feature", "properties": { "ID": 28, "Area": "北部地區巡防局", "Name": "猛澳安檢所", "Zip_code": 211, "Address": "連江縣莒光鄉福正村5號", "X": 119.981836, "Y": 25.963608, "Note": "n\/a", "Tel": "(083)689082" }, "geometry": { "type": "Point", "coordinates": [ 119.981836, 25.963608 ] } },
{ "type": "Feature", "properties": { "ID": 29, "Area": "北部地區巡防局", "Name": "中柱安檢所", "Zip_code": 212, "Address": "連江縣東引鄉樂華村160-3號", "X": 120.489756, "Y": 26.367097, "Note": "n\/a", "Tel": "(083)676284" }, "geometry": { "type": "Point", "coordinates": [ 120.489756, 26.367097 ] } },
{ "type": "Feature", "properties": { "ID": 30, "Area": "北部地區巡防局", "Name": "清水安檢所", "Zip_code": 270, "Address": "宜蘭縣五結鄉季新村季水路93號", "X": 121.83414, "Y": 24.690947, "Note": "n\/a", "Tel": "(03)9502168" }, "geometry": { "type": "Point", "coordinates": [ 121.83414, 24.690947 ] } },
{ "type": "Feature", "properties": { "ID": 31, "Area": "北部地區巡防局", "Name": "大坑罟機動巡邏站", "Zip_code": 270, "Address": "宜蘭縣蘇澳鎮大成路172 號", "X": 121.85097, "Y": 24.624329, "Note": "n\/a", "Tel": "(03)9908429" }, "geometry": { "type": "Point", "coordinates": [ 121.85097, 24.624329 ] } },
{ "type": "Feature", "properties": { "ID": 32, "Area": "北部地區巡防局", "Name": "蘇澳商港安檢所", "Zip_code": 270, "Address": "宜蘭縣蘇澳鎮港區路1號", "X": 121.827676, "Y": 24.647973, "Note": "n\/a", "Tel": "(03)9963028" }, "geometry": { "type": "Point", "coordinates": [ 121.827676, 24.647973 ] } },
{ "type": "Feature", "properties": { "ID": 33, "Area": "北部地區巡防局", "Name": "蘇澳安檢所", "Zip_code": 270, "Address": "宜蘭縣蘇澳鎮港區路50號", "X": 121.826685, "Y": 24.647592, "Note": "n\/a", "Tel": "(03)9952496" }, "geometry": { "type": "Point", "coordinates": [ 121.826685, 24.647592 ] } },
{ "type": "Feature", "properties": { "ID": 34, "Area": "北部地區巡防局", "Name": "南興安檢所", "Zip_code": 270, "Address": "宜蘭縣蘇澳鎮跨港路156號", "X": 121.869917, "Y": 24.587149, "Note": "n\/a", "Tel": "(03)9952687" }, "geometry": { "type": "Point", "coordinates": [ 121.869917, 24.587149 ] } },
{ "type": "Feature", "properties": { "ID": 35, "Area": "北部地區巡防局", "Name": "粉鳥林安檢所", "Zip_code": 270, "Address": "宜蘭縣蘇澳鎮東澳里粉鳥林1號", "X": 121.842449, "Y": 24.497113, "Note": "n\/a", "Tel": "(03)9986120" }, "geometry": { "type": "Point", "coordinates": [ 121.842449, 24.497113 ] } },
{ "type": "Feature", "properties": { "ID": 36, "Area": "北部地區巡防局", "Name": "南澳安檢所", "Zip_code": 270, "Address": "宜蘭縣南澳鄉朝陽里朝陽路1-1號", "X": 121.819346, "Y": 24.461026, "Note": "n\/a", "Tel": "(03)9981984" }, "geometry": { "type": "Point", "coordinates": [ 121.819346, 24.461026 ] } },
{ "type": "Feature", "properties": { "ID": 37, "Area": "北部地區巡防局", "Name": "白來分安檢所", "Zip_code": 270, "Address": "宜蘭縣南澳鄉澳花村碧海路99號", "X": 121.708145, "Y": 24.345608, "Note": "n\/a", "Tel": "(03)9985197" }, "geometry": { "type": "Point", "coordinates": [ 121.708145, 24.345608 ] } },
{ "type": "Feature", "properties": { "ID": 38, "Area": "北部地區巡防局", "Name": "石城安檢所", "Zip_code": 261, "Address": "宜蘭縣頭城鎮石城路40之7號", "X": 121.950449, "Y": 24.979634, "Note": "n\/a", "Tel": "(03)9780924" }, "geometry": { "type": "Point", "coordinates": [ 121.950449, 24.979634 ] } },
{ "type": "Feature", "properties": { "ID": 39, "Area": "北部地區巡防局", "Name": "大里安檢所", "Zip_code": 261, "Address": "宜蘭縣大里里大里路115之4號", "X": 121.92145, "Y": 24.963506, "Note": "n\/a", "Tel": "(03)9780923" }, "geometry": { "type": "Point", "coordinates": [ 121.92145, 24.963506 ] } },
{ "type": "Feature", "properties": { "ID": 40, "Area": "北部地區巡防局", "Name": "大溪安檢所", "Zip_code": 261, "Address": "宜蘭縣頭城鎮大溪里濱海路5段492號", "X": 121.894336, "Y": 24.941063, "Note": "n\/a", "Tel": "(03)9780934" }, "geometry": { "type": "Point", "coordinates": [ 121.894336, 24.941063 ] } },
{ "type": "Feature", "properties": { "ID": 41, "Area": "北部地區巡防局", "Name": "梗枋安檢所", "Zip_code": 261, "Address": "宜蘭縣頭城鎮更新里濱海路三段292號", "X": 121.870343, "Y": 24.905264, "Note": "n\/a", "Tel": "(03)9776759" }, "geometry": { "type": "Point", "coordinates": [ 121.870343, 24.905264 ] } },
{ "type": "Feature", "properties": { "ID": 42, "Area": "北部地區巡防局", "Name": "烏石港安檢所", "Zip_code": 261, "Address": "宜蘭縣頭城鎮港口路15-30號", "X": 121.83484, "Y": 24.869254, "Note": "n\/a", "Tel": "(03)9776411" }, "geometry": { "type": "Point", "coordinates": [ 121.83484, 24.869254 ] } },
{ "type": "Feature", "properties": { "ID": 43, "Area": "北部地區巡防局", "Name": "大福村安檢所", "Zip_code": 263, "Address": "宜蘭縣壯圍鄉大福村壯濱路6段156巷7號", "X": 121.81786, "Y": 24.795345, "Note": "n\/a", "Tel": "(03)9306164" }, "geometry": { "type": "Point", "coordinates": [ 121.81786, 24.795345 ] } },
{ "type": "Feature", "properties": { "ID": 44, "Area": "北部地區巡防局", "Name": "東港村安檢所", "Zip_code": 263, "Address": "宜蘭縣壯圍鄉東港村部後路12之6號", "X": 121.827087, "Y": 24.718306, "Note": "n\/a", "Tel": "(03)9382354" }, "geometry": { "type": "Point", "coordinates": [ 121.827087, 24.718306 ] } },
{ "type": "Feature", "properties": { "ID": 45, "Area": "北部地區巡防局", "Name": "龜山島安檢所", "Zip_code": 261, "Address": "宜蘭縣頭城鎮龜山路1號", "X": 121.89835, "Y": 24.942221, "Note": "n\/a", "Tel": "(03)9310334" }, "geometry": { "type": "Point", "coordinates": [ 121.89835, 24.942221 ] } },
{ "type": "Feature", "properties": { "ID": 46, "Area": "北部地區巡防局", "Name": "南雅安檢所", "Zip_code": 22451, "Address": "新北市瑞芳區南雅路41-2號", "X": 121.887992, "Y": 25.12039, "Note": "n\/a", "Tel": "(02)24911043" }, "geometry": { "type": "Point", "coordinates": [ 121.887992, 25.12039 ] } },
{ "type": "Feature", "properties": { "ID": 47, "Area": "北部地區巡防局", "Name": "鼻頭安檢所", "Zip_code": 22451, "Address": "新北市瑞芳區鼻頭里鼻頭路101號", "X": 121.916111, "Y": 25.1237, "Note": "n\/a", "Tel": "(02)24911001" }, "geometry": { "type": "Point", "coordinates": [ 121.916111, 25.1237 ] } },
{ "type": "Feature", "properties": { "ID": 48, "Area": "北部地區巡防局", "Name": "龍洞安檢所", "Zip_code": 22841, "Address": "新北市貢寮區龍洞街35-6號", "X": 121.9155, "Y": 25.11166, "Note": "n\/a", "Tel": "(02)24909176" }, "geometry": { "type": "Point", "coordinates": [ 121.9155, 25.11166 ] } },
{ "type": "Feature", "properties": { "ID": 49, "Area": "北部地區巡防局", "Name": "美灩山安檢所", "Zip_code": 22841, "Address": "新北市貢寮區美灩山街59-3號", "X": 121.945979, "Y": 25.016876, "Note": "n\/a", "Tel": "(02)24901387" }, "geometry": { "type": "Point", "coordinates": [ 121.945979, 25.016876 ] } },
{ "type": "Feature", "properties": { "ID": 50, "Area": "北部地區巡防局", "Name": "澳底安檢所", "Zip_code": 22841, "Address": "新北市貢寮區新港街122號", "X": 121.926801, "Y": 25.056084, "Note": "n\/a", "Tel": "(02)24902160" }, "geometry": { "type": "Point", "coordinates": [ 121.926801, 25.056084 ] } },
{ "type": "Feature", "properties": { "ID": 51, "Area": "北部地區巡防局", "Name": "福隆安檢所", "Zip_code": 22841, "Address": "新北市貢寮區東興街6-17號", "X": 121.949462, "Y": 25.018049, "Note": "n\/a", "Tel": "(02)24991707" }, "geometry": { "type": "Point", "coordinates": [ 121.949462, 25.018049 ] } },
{ "type": "Feature", "properties": { "ID": 52, "Area": "北部地區巡防局", "Name": "卯澳安檢所", "Zip_code": 22841, "Address": "新北市貢寮區福興街16-1號", "X": 121.991176, "Y": 25.012043, "Note": "n\/a", "Tel": "(02)24991898" }, "geometry": { "type": "Point", "coordinates": [ 121.991176, 25.012043 ] } },
{ "type": "Feature", "properties": { "ID": 53, "Area": "北部地區巡防局", "Name": "馬崗安檢所", "Zip_code": 22841, "Address": "新北市貢寮區馬崗街22號", "X": 122.00042, "Y": 25.012304, "Note": "n\/a", "Tel": "(02)24991882" }, "geometry": { "type": "Point", "coordinates": [ 122.00042, 25.012304 ] } },
{ "type": "Feature", "properties": { "ID": 54, "Area": "北部地區巡防局", "Name": "水湳洞安檢所", "Zip_code": 22446, "Address": "新北市瑞芳鎮明里路90-1號", "X": 121.913068, "Y": 25.057076, "Note": "n\/a", "Tel": "(02)24961340" }, "geometry": { "type": "Point", "coordinates": [ 121.913068, 25.057076 ] } },
{ "type": "Feature", "properties": { "ID": 55, "Area": "北部地區巡防局", "Name": "深澳安檢所", "Zip_code": 22446, "Address": "新北市瑞芳鎮深澳路189-9號", "X": 121.820556, "Y": 25.134288, "Note": "n\/a", "Tel": "(02)24977924" }, "geometry": { "type": "Point", "coordinates": [ 121.820556, 25.134288 ] } },
{ "type": "Feature", "properties": { "ID": 56, "Area": "北部地區巡防局", "Name": "長潭里安檢所", "Zip_code": 20429, "Address": "基隆市中正區北寧路369巷66號", "X": 121.801426, "Y": 25.140991, "Note": "n\/a", "Tel": "(02)24690196" }, "geometry": { "type": "Point", "coordinates": [ 121.801426, 25.140991 ] } },
{ "type": "Feature", "properties": { "ID": 57, "Area": "北部地區巡防局", "Name": "望海巷安檢所", "Zip_code": 20429, "Address": "基隆市中正區北寧路373號", "X": 121.795132, "Y": 25.139699, "Note": "n\/a", "Tel": "(02)24690195" }, "geometry": { "type": "Point", "coordinates": [ 121.795132, 25.139699 ] } },
{ "type": "Feature", "properties": { "ID": 58, "Area": "北部地區巡防局", "Name": "八斗子安檢所", "Zip_code": 20429, "Address": "基隆市中正區漁港一街9號", "X": 121.795742, "Y": 25.142486, "Note": "n\/a", "Tel": "(02)24695201" }, "geometry": { "type": "Point", "coordinates": [ 121.795742, 25.142486 ] } },
{ "type": "Feature", "properties": { "ID": 59, "Area": "北部地區巡防局", "Name": "碧砂安檢所", "Zip_code": 20429, "Address": "基隆市中正區北寧路213號之20號", "X": 121.790216, "Y": 25.142109, "Note": "n\/a", "Tel": "(02)24697214" }, "geometry": { "type": "Point", "coordinates": [ 121.790216, 25.142109 ] } },
{ "type": "Feature", "properties": { "ID": 60, "Area": "北部地區巡防局", "Name": "八尺門安檢所", "Zip_code": 20429, "Address": "基隆市中正區和一路2巷30號", "X": 121.76899, "Y": 25.158962, "Note": "n\/a", "Tel": "(02)24632816" }, "geometry": { "type": "Point", "coordinates": [ 121.76899, 25.158962 ] } },
{ "type": "Feature", "properties": { "ID": 61, "Area": "北部地區巡防局", "Name": "正濱安檢所", "Zip_code": 20429, "Address": "基隆市中正區和一路232號", "X": 121.763165, "Y": 25.155033, "Note": "n\/a", "Tel": "(02)24632814" }, "geometry": { "type": "Point", "coordinates": [ 121.763165, 25.155033 ] } },
{ "type": "Feature", "properties": { "ID": 62, "Area": "北部地區巡防局", "Name": "基隆商港安檢所", "Zip_code": 20051, "Address": "基隆市仁愛區港西街6號123室", "X": 121.740335, "Y": 25.132989, "Note": "n\/a", "Tel": "(02)24253585" }, "geometry": { "type": "Point", "coordinates": [ 121.740335, 25.132989 ] } },
{ "type": "Feature", "properties": { "ID": 63, "Area": "北部地區巡防局", "Name": "外木山安檢所", "Zip_code": 20341, "Address": "基隆市中山區協和街211-3號", "X": 121.732652, "Y": 25.158924, "Note": "n\/a", "Tel": "(02)24253679" }, "geometry": { "type": "Point", "coordinates": [ 121.732652, 25.158924 ] } },
{ "type": "Feature", "properties": { "ID": 64, "Area": "北部地區巡防局", "Name": "大武崙安檢所", "Zip_code": 20491, "Address": "基隆市安樂區湖海路2段186號 ", "X": 121.706453, "Y": 25.166182, "Note": "n\/a", "Tel": "(02)24333947" }, "geometry": { "type": "Point", "coordinates": [ 121.706453, 25.166182 ] } },
{ "type": "Feature", "properties": { "ID": 65, "Area": "北部地區巡防局", "Name": "基隆嶼安檢所", "Zip_code": 20429, "Address": "基隆市中正區基隆嶼安檢站", "X": 121.773682, "Y": 25.148999, "Note": "n\/a", "Tel": "(02)24988553" }, "geometry": { "type": "Point", "coordinates": [ 121.773682, 25.148999 ] } },
{ "type": "Feature", "properties": { "ID": 66, "Area": "北部地區巡防局", "Name": "彭佳嶼機動巡邏站", "Zip_code": 207, "Address": "基隆市澎佳嶼1號", "X": 121.739183, "Y": 25.127603, "Note": "n\/a", "Tel": "(02)24988550" }, "geometry": { "type": "Point", "coordinates": [ 121.739183, 25.127603 ] } },
{ "type": "Feature", "properties": { "ID": 67, "Area": "北部地區巡防局", "Name": "萬里安檢所", "Zip_code": 20745, "Address": "新北市萬里區獅頭路15-1號", "X": 121.687175, "Y": 25.174243, "Note": "n\/a", "Tel": "(02)24921555" }, "geometry": { "type": "Point", "coordinates": [ 121.687175, 25.174243 ] } },
{ "type": "Feature", "properties": { "ID": 68, "Area": "北部地區巡防局", "Name": "龜吼安檢所", "Zip_code": 20744, "Address": "新北市萬里區漁澳路85號之3", "X": 121.688936, "Y": 25.196464, "Note": "n\/a", "Tel": "(02)24923815" }, "geometry": { "type": "Point", "coordinates": [ 121.688936, 25.196464 ] } },
{ "type": "Feature", "properties": { "ID": 69, "Area": "北部地區巡防局", "Name": "東澳安檢所", "Zip_code": 20744, "Address": "新北市萬里區野柳里東澳9號", "X": 121.691302, "Y": 25.203827, "Note": "n\/a", "Tel": "(02)24923814" }, "geometry": { "type": "Point", "coordinates": [ 121.691302, 25.203827 ] } },
{ "type": "Feature", "properties": { "ID": 70, "Area": "北部地區巡防局", "Name": "野柳安檢所", "Zip_code": 20744, "Address": "新北市萬里區野柳村港東路151-1號", "X": 121.639718, "Y": 25.167602, "Note": "n\/a", "Tel": "(02)24923814" }, "geometry": { "type": "Point", "coordinates": [ 121.639718, 25.167602 ] } },
{ "type": "Feature", "properties": { "ID": 71, "Area": "北部地區巡防局", "Name": "水尾安檢所", "Zip_code": 20846, "Address": "新北市金山區民生路2號", "X": 121.6493, "Y": 25.2243, "Note": "n\/a", "Tel": "(02)24985120" }, "geometry": { "type": "Point", "coordinates": [ 121.6493, 25.2243 ] } },
{ "type": "Feature", "properties": { "ID": 72, "Area": "北部地區巡防局", "Name": "磺港安檢所", "Zip_code": 20844, "Address": "新北市金山區磺港路24-6號", "X": 121.6497, "Y": 25.23, "Note": "n\/a", "Tel": "(02)24983746" }, "geometry": { "type": "Point", "coordinates": [ 121.6497, 25.23 ] } },
{ "type": "Feature", "properties": { "ID": 73, "Area": "北部地區巡防局", "Name": "草里安檢所", "Zip_code": 25343, "Address": "新北市石門區草里村阿里荖33-2號", "X": 121.607106, "Y": 25.276079, "Note": "n\/a", "Tel": "(02)26380564" }, "geometry": { "type": "Point", "coordinates": [ 121.607106, 25.276079 ] } },
{ "type": "Feature", "properties": { "ID": 74, "Area": "北部地區巡防局", "Name": "石門安檢所", "Zip_code": 25343, "Address": "新北市石門區中央路37-1號", "X": 121.423357, "Y": 24.96182, "Note": "n\/a", "Tel": "(02)26380574" }, "geometry": { "type": "Point", "coordinates": [ 121.423357, 24.96182 ] } },
{ "type": "Feature", "properties": { "ID": 75, "Area": "北部地區巡防局", "Name": "富基安檢所", "Zip_code": 253, "Address": "新北市石門區楓林15-1號", "X": 121.534456, "Y": 25.29411, "Note": "n\/a", "Tel": "(02)26380584" }, "geometry": { "type": "Point", "coordinates": [ 121.534456, 25.29411 ] } },
{ "type": "Feature", "properties": { "ID": 76, "Area": "北部地區巡防局", "Name": "麟山鼻安檢所", "Zip_code": 253, "Address": "新北市石門區德茂村下員坑15-15號", "X": 121.525519, "Y": 25.284534, "Note": "n\/a", "Tel": "(02)86352548" }, "geometry": { "type": "Point", "coordinates": [ 121.525519, 25.284534 ] } },
{ "type": "Feature", "properties": { "ID": 77, "Area": "北部地區巡防局", "Name": "後厝安檢所", "Zip_code": 252, "Address": "新北市三芝鄉錫板村海尾14-34號", "X": 121.477271, "Y": 25.259456, "Note": "n\/a", "Tel": "(02)86352549" }, "geometry": { "type": "Point", "coordinates": [ 121.477271, 25.259456 ] } },
{ "type": "Feature", "properties": { "ID": 78, "Area": "北部地區巡防局", "Name": "淡水第二漁港安檢所", "Zip_code": 251, "Address": "新北市淡水區觀海路251號", "X": 121.412936, "Y": 25.184297, "Note": "n\/a", "Tel": "(02)28055439" }, "geometry": { "type": "Point", "coordinates": [ 121.412936, 25.184297 ] } },
{ "type": "Feature", "properties": { "ID": 79, "Area": "北部地區巡防局", "Name": "淡水第一安檢所", "Zip_code": 251, "Address": "新北市淡水區中正路233-1號", "X": 121.435688, "Y": 25.173082, "Note": "n\/a", "Tel": "(02)26264071" }, "geometry": { "type": "Point", "coordinates": [ 121.435688, 25.173082 ] } },
{ "type": "Feature", "properties": { "ID": 80, "Area": "北部地區巡防局", "Name": "台北商港安檢所", "Zip_code": 249, "Address": "新北市八里區挖仔尾街1-7號", "X": 121.412126, "Y": 25.16572, "Note": "n\/a", "Tel": "(02)26195492" }, "geometry": { "type": "Point", "coordinates": [ 121.412126, 25.16572 ] } },
{ "type": "Feature", "properties": { "ID": 81, "Area": "北部地區巡防局", "Name": "下罟子安檢所", "Zip_code": 249, "Address": "新北市八里區下罟子里下罟子村街16-9號", "X": 121.387122, "Y": 25.141831, "Note": "n\/a", "Tel": "(02)26104684" }, "geometry": { "type": "Point", "coordinates": [ 121.387122, 25.141831 ] } },
{ "type": "Feature", "properties": { "ID": 82, "Area": "北部地區巡防局", "Name": "下寮安檢所", "Zip_code": 244, "Address": "新北市林口區下福里10鄰135號", "X": 121.302688, "Y": 25.114293, "Note": "n\/a", "Tel": "(02)26062580" }, "geometry": { "type": "Point", "coordinates": [ 121.302688, 25.114293 ] } },
{ "type": "Feature", "properties": { "ID": 83, "Area": "北部地區巡防局", "Name": "竹圍安檢所", "Zip_code": 337, "Address": "桃園縣大園鄉沙崙村7鄰10號", "X": 121.30098, "Y": 24.993628, "Note": "n\/a", "Tel": "(03)3838837" }, "geometry": { "type": "Point", "coordinates": [ 121.30098, 24.993628 ] } },
{ "type": "Feature", "properties": { "ID": 84, "Area": "北部地區巡防局", "Name": "永安安檢所", "Zip_code": 327, "Address": "桃園縣新屋鄉永安村崁頭厝16鄰85號", "X": 121.30098, "Y": 24.993628, "Note": "n\/a", "Tel": "(03)4861794" }, "geometry": { "type": "Point", "coordinates": [ 121.30098, 24.993628 ] } },
{ "type": "Feature", "properties": { "ID": 85, "Area": "北部地區巡防局", "Name": "蚵二安檢所", "Zip_code": 327, "Address": "桃園縣新屋鄉蚵殼港6鄰56號", "X": 121.30098, "Y": 24.993628, "Note": "n\/a", "Tel": "(03)4766004" }, "geometry": { "type": "Point", "coordinates": [ 121.30098, 24.993628 ] } },
{ "type": "Feature", "properties": { "ID": 86, "Area": "北部地區巡防局", "Name": "坡頭安檢所", "Zip_code": 30446, "Address": "新竹縣新豐鄉坡頭村1鄰2之3號", "X": 120.979028, "Y": 24.925884, "Note": "n\/a", "Tel": "(03)5687514" }, "geometry": { "type": "Point", "coordinates": [ 120.979028, 24.925884 ] } },
{ "type": "Feature", "properties": { "ID": 87, "Area": "北部地區巡防局", "Name": "新豐安檢所", "Zip_code": 30472, "Address": "新竹縣新豐鄉紅毛港區", "X": 120.9757, "Y": 24.915061, "Note": "無門牌地址", "Tel": "(03)5687049" }, "geometry": { "type": "Point", "coordinates": [ 120.9757, 24.915061 ] } },
{ "type": "Feature", "properties": { "ID": 88, "Area": "北部地區巡防局", "Name": "新港里安檢所", "Zip_code": 30263, "Address": "新竹縣竹北市新港里10鄰10號", "X": 120.94604, "Y": 24.852177, "Note": "n\/a", "Tel": "(03)5564250" }, "geometry": { "type": "Point", "coordinates": [ 120.94604, 24.852177 ] } },
{ "type": "Feature", "properties": { "ID": 89, "Area": "北部地區巡防局", "Name": "新竹安檢所", "Zip_code": 30058, "Address": "新竹縣新港南路101號", "X": 120.920006, "Y": 24.845994, "Note": "n\/a", "Tel": "(03)5366685" }, "geometry": { "type": "Point", "coordinates": [ 120.920006, 24.845994 ] } },
{ "type": "Feature", "properties": { "ID": 90, "Area": "北部地區巡防局", "Name": "海山安檢所", "Zip_code": 30094, "Address": "新竹市海山港路26號", "X": 120.905814, "Y": 24.764066, "Note": "n\/a", "Tel": "(03)5370748" }, "geometry": { "type": "Point", "coordinates": [ 120.905814, 24.764066 ] } },
{ "type": "Feature", "properties": { "ID": 91, "Area": "北部地區巡防局", "Name": "尚義機動巡邏站", "Zip_code": 30287, "Address": "新竹縣竹北市尚義里十五鄰125號", "X": 120.968611, "Y": 24.865393, "Note": "n\/a", "Tel": "(03)5560276" }, "geometry": { "type": "Point", "coordinates": [ 120.968611, 24.865393 ] } },
{ "type": "Feature", "properties": { "ID": 92, "Area": "中部地區巡防局", "Name": "龍鳳安檢所", "Zip_code": 350, "Address": "苗栗縣竹南鎮龍鳳里38-1號", "X": 120.864916, "Y": 24.69219, "Note": "n\/a", "Tel": "(037)484949" }, "geometry": { "type": "Point", "coordinates": [ 120.864916, 24.69219 ] } },
{ "type": "Feature", "properties": { "ID": 93, "Area": "中部地區巡防局", "Name": "塭仔頭安檢所", "Zip_code": 350, "Address": "苗栗縣竹南鎮港乾里塭仔頭28號", "X": 120.872405, "Y": 24.688701, "Note": "n\/a", "Tel": "(037)484984" }, "geometry": { "type": "Point", "coordinates": [ 120.872405, 24.688701 ] } },
{ "type": "Feature", "properties": { "ID": 94, "Area": "中部地區巡防局", "Name": "渡船頭安檢所", "Zip_code": 356, "Address": "苗栗縣後龍鎮海寶里渡船頭23-6號", "X": 120.821427, "Y": 24.560159, "Note": "n\/a", "Tel": "(037)432814" }, "geometry": { "type": "Point", "coordinates": [ 120.821427, 24.560159 ] } },
{ "type": "Feature", "properties": { "ID": 95, "Area": "中部地區巡防局", "Name": "外埔安檢所", "Zip_code": 356, "Address": "苗栗縣後龍鎮外埔里海埔131-6號", "X": 120.772814, "Y": 24.649562, "Note": "n\/a", "Tel": "(037)433846" }, "geometry": { "type": "Point", "coordinates": [ 120.772814, 24.649562 ] } },
{ "type": "Feature", "properties": { "ID": 96, "Area": "中部地區巡防局", "Name": "水尾里安檢所", "Zip_code": 356, "Address": "苗栗縣後龍鎮水尾里海埔117號", "X": 120.763397, "Y": 24.633658, "Note": "n\/a", "Tel": "(037)726404" }, "geometry": { "type": "Point", "coordinates": [ 120.763397, 24.633658 ] } },
{ "type": "Feature", "properties": { "ID": 97, "Area": "中部地區巡防局", "Name": "公司寮安檢所", "Zip_code": 356, "Address": "苗栗縣後龍鎮龍津里1-3號", "X": 120.763997, "Y": 24.605008, "Note": "n\/a", "Tel": "(037)450374" }, "geometry": { "type": "Point", "coordinates": [ 120.763997, 24.605008 ] } },
{ "type": "Feature", "properties": { "ID": 98, "Area": "中部地區巡防局", "Name": "福寧安檢所", "Zip_code": 356, "Address": "苗栗縣後龍鎮福寧里100號", "X": 120.75511, "Y": 24.592754, "Note": "n\/a", "Tel": "(037)450414" }, "geometry": { "type": "Point", "coordinates": [ 120.75511, 24.592754 ] } },
{ "type": "Feature", "properties": { "ID": 99, "Area": "中部地區巡防局", "Name": "南港安檢所", "Zip_code": 356, "Address": "苗栗縣後龍鎮南港里山邊108-4號", "X": 120.790603, "Y": 24.614435, "Note": "n\/a", "Tel": "(037)920063" }, "geometry": { "type": "Point", "coordinates": [ 120.790603, 24.614435 ] } },
{ "type": "Feature", "properties": { "ID": 100, "Area": "中部地區巡防局", "Name": "白沙屯安檢所", "Zip_code": 357, "Address": "苗栗縣通霄鎮白東里5-5號", "X": 120.716314, "Y": 24.565431, "Note": "n\/a", "Tel": "(037)791510" }, "geometry": { "type": "Point", "coordinates": [ 120.716314, 24.565431 ] } },
{ "type": "Feature", "properties": { "ID": 101, "Area": "中部地區巡防局", "Name": "新埔安檢所", "Zip_code": 357, "Address": "苗栗縣通霄鎮新埔里69號", "X": 120.698707, "Y": 24.542004, "Note": "n\/a", "Tel": "(037)792044" }, "geometry": { "type": "Point", "coordinates": [ 120.698707, 24.542004 ] } },
{ "type": "Feature", "properties": { "ID": 102, "Area": "中部地區巡防局", "Name": "通霄安檢所", "Zip_code": 357, "Address": "苗栗縣通霄鎮通霄里漁港路69號", "X": 120.677618, "Y": 24.49339, "Note": "n\/a", "Tel": "(037)763507" }, "geometry": { "type": "Point", "coordinates": [ 120.677618, 24.49339 ] } },
{ "type": "Feature", "properties": { "ID": 103, "Area": "中部地區巡防局", "Name": "苑港安檢所", "Zip_code": 358, "Address": "苗栗縣苑裡鎮苑港漁港55-1號", "X": 120.653854, "Y": 24.440171, "Note": "n\/a", "Tel": "(037)855726" }, "geometry": { "type": "Point", "coordinates": [ 120.653854, 24.440171 ] } },
{ "type": "Feature", "properties": { "ID": 104, "Area": "中部地區巡防局", "Name": "苑裡安檢所", "Zip_code": 358, "Address": "苗栗縣苑裡鎮海岸里海岸61-20號", "X": 120.635802, "Y": 24.447497, "Note": "n\/a", "Tel": "(037)854679" }, "geometry": { "type": "Point", "coordinates": [ 120.635802, 24.447497 ] } },
{ "type": "Feature", "properties": { "ID": 105, "Area": "中部地區巡防局", "Name": "松柏港安檢所", "Zip_code": 437, "Address": "台中市大甲區順帆路233號", "X": 120.618015, "Y": 24.428826, "Note": "n\/a", "Tel": "(04)26817818" }, "geometry": { "type": "Point", "coordinates": [ 120.618015, 24.428826 ] } },
{ "type": "Feature", "properties": { "ID": 106, "Area": "中部地區巡防局", "Name": "五甲港安檢所", "Zip_code": 439, "Address": "台中市大安區永安村五甲南路119號", "X": 120.591222, "Y": 24.370235, "Note": "n\/a", "Tel": "(04)26764253" }, "geometry": { "type": "Point", "coordinates": [ 120.591222, 24.370235 ] } },
{ "type": "Feature", "properties": { "ID": 107, "Area": "中部地區巡防局", "Name": "北汕安檢所", "Zip_code": 439, "Address": "台中巿大安區溫寮庄中山北路1巷53號", "X": 120.585244, "Y": 24.372914, "Note": "n\/a", "Tel": "(04)26763240" }, "geometry": { "type": "Point", "coordinates": [ 120.585244, 24.372914 ] } },
{ "type": "Feature", "properties": { "ID": 108, "Area": "中部地區巡防局", "Name": "溫寮安檢所", "Zip_code": 439, "Address": "台中市大安區中山北路一巷53號", "X": 120.585244, "Y": 24.372914, "Note": "n\/a", "Tel": "(04)26764247" }, "geometry": { "type": "Point", "coordinates": [ 120.585244, 24.372914 ] } },
{ "type": "Feature", "properties": { "ID": 109, "Area": "中部地區巡防局", "Name": "梧棲安檢所", "Zip_code": 436, "Address": "台中市清水區北堤路21號", "X": 120.51714, "Y": 24.293085, "Note": "n\/a", "Tel": "(04)26583013" }, "geometry": { "type": "Point", "coordinates": [ 120.51714, 24.293085 ] } },
{ "type": "Feature", "properties": { "ID": 110, "Area": "中部地區巡防局", "Name": "台中商港安檢所", "Zip_code": 435, "Address": "台中市梧棲區中二路一段8號", "X": 120.516231, "Y": 24.24173, "Note": "n\/a", "Tel": "(04)26583123" }, "geometry": { "type": "Point", "coordinates": [ 120.516231, 24.24173 ] } },
{ "type": "Feature", "properties": { "ID": 111, "Area": "中部地區巡防局", "Name": "麗水安檢所", "Zip_code": 434, "Address": "台中市龍井區麗水里三港路水裡港巷61-5號", "X": 120.497658, "Y": 24.201443, "Note": "n\/a", "Tel": "(04)26307181" }, "geometry": { "type": "Point", "coordinates": [ 120.497658, 24.201443 ] } },
{ "type": "Feature", "properties": { "ID": 112, "Area": "中部地區巡防局", "Name": "烏坵安檢所", "Zip_code": 896, "Address": "金門縣烏坵鄉烏坵安檢所", "X": 119.453333, "Y": 24.9914, "Note": "無門牌地址", "Tel": "(082)666012" }, "geometry": { "type": "Point", "coordinates": [ 119.453333, 24.9914 ] } },
{ "type": "Feature", "properties": { "ID": 113, "Area": "中部地區巡防局", "Name": "防潮門安檢所", "Zip_code": 509, "Address": "彰化縣伸港鄉全興村西全路176巷111之1", "X": 120.490759, "Y": 24.182011, "Note": "n\/a", "Tel": "(04)7994963" }, "geometry": { "type": "Point", "coordinates": [ 120.490759, 24.182011 ] } },
{ "type": "Feature", "properties": { "ID": 114, "Area": "中部地區巡防局", "Name": "塭仔安檢所", "Zip_code": 507, "Address": "彰化縣線西鄉塭仔村漁港路1236號", "X": 120.448593, "Y": 24.126605, "Note": "n\/a", "Tel": "(04)7586627" }, "geometry": { "type": "Point", "coordinates": [ 120.448593, 24.126605 ] } },
{ "type": "Feature", "properties": { "ID": 115, "Area": "中部地區巡防局", "Name": "崑崙台安檢所", "Zip_code": 505, "Address": "彰化縣鹿港鎮山崙里草港尾段982-1地號", "X": 120.398896, "Y": 24.107974, "Note": "n\/a", "Tel": "(04)7710840" }, "geometry": { "type": "Point", "coordinates": [ 120.398896, 24.107974 ] } },
{ "type": "Feature", "properties": { "ID": 116, "Area": "中部地區巡防局", "Name": "崙尾灣安檢所", "Zip_code": 505, "Address": "彰化縣鹿港鎮顏厝小段530-17地號", "X": 120.431962, "Y": 24.080115, "Note": "n\/a", "Tel": "(04)7744636" }, "geometry": { "type": "Point", "coordinates": [ 120.431962, 24.080115 ] } },
{ "type": "Feature", "properties": { "ID": 117, "Area": "中部地區巡防局", "Name": "王功安檢所", "Zip_code": 528, "Address": "彰化縣芳苑鄉王功村漁港路968號", "X": 120.326448, "Y": 23.969821, "Note": "n\/a", "Tel": "(04)8933845" }, "geometry": { "type": "Point", "coordinates": [ 120.326448, 23.969821 ] } },
{ "type": "Feature", "properties": { "ID": 118, "Area": "中部地區巡防局", "Name": "芳苑安檢所", "Zip_code": 528, "Address": "彰化縣芳苑鄉芳中村光明路80號", "X": 120.3156, "Y": 23.927721, "Note": "n\/a", "Tel": "(04)8981305" }, "geometry": { "type": "Point", "coordinates": [ 120.3156, 23.927721 ] } },
{ "type": "Feature", "properties": { "ID": 119, "Area": "中部地區巡防局", "Name": "三豐安檢所", "Zip_code": 527, "Address": "彰化縣大城鄉三豐村和平路30之1號", "X": 120.29779, "Y": 23.883919, "Note": "n\/a", "Tel": "(04)8945958" }, "geometry": { "type": "Point", "coordinates": [ 120.29779, 23.883919 ] } },
{ "type": "Feature", "properties": { "ID": 120, "Area": "中部地區巡防局", "Name": "頂庄安檢所", "Zip_code": 527, "Address": "彰化縣大城鄉頂庄村西錯路98號", "X": 120.282881, "Y": 23.848672, "Note": "n\/a", "Tel": "(04)8946084" }, "geometry": { "type": "Point", "coordinates": [ 120.282881, 23.848672 ] } },
{ "type": "Feature", "properties": { "ID": 121, "Area": "中部地區巡防局", "Name": "許厝寮安檢所", "Zip_code": 638, "Address": "雲林縣麥寮鄉台塑工業園區4號", "X": 120.226587, "Y": 23.795103, "Note": "n\/a", "Tel": "(05)6915582" }, "geometry": { "type": "Point", "coordinates": [ 120.226587, 23.795103 ] } },
{ "type": "Feature", "properties": { "ID": 122, "Area": "中部地區巡防局", "Name": "麥寮工業港安檢所", "Zip_code": 638, "Address": "雲林縣麥寮鄉三盛村工業區1號", "X": 120.226587, "Y": 23.795103, "Note": "n\/a", "Tel": "(05)6812101" }, "geometry": { "type": "Point", "coordinates": [ 120.226587, 23.795103 ] } },
{ "type": "Feature", "properties": { "ID": 123, "Area": "中部地區巡防局", "Name": "蚊港安檢所", "Zip_code": 636, "Address": "雲林縣台西鄉蚊港村新興海埔地1段13號", "X": 120.188564, "Y": 23.752873, "Note": "n\/a", "Tel": "(05)6903457" }, "geometry": { "type": "Point", "coordinates": [ 120.188564, 23.752873 ] } },
{ "type": "Feature", "properties": { "ID": 124, "Area": "中部地區巡防局", "Name": "五條港安檢所", "Zip_code": 636, "Address": "雲林縣台西鄉五港村中央路1000號", "X": 120.199061, "Y": 23.717236, "Note": "n\/a", "Tel": "(05)6980343" }, "geometry": { "type": "Point", "coordinates": [ 120.199061, 23.717236 ] } },
{ "type": "Feature", "properties": { "ID": 125, "Area": "中部地區巡防局", "Name": "台西安檢所", "Zip_code": 636, "Address": "雲林縣台西鄉台興段251號", "X": 120.193566, "Y": 23.722971, "Note": "n\/a", "Tel": "(05)6983928" }, "geometry": { "type": "Point", "coordinates": [ 120.193566, 23.722971 ] } },
{ "type": "Feature", "properties": { "ID": 126, "Area": "中部地區巡防局", "Name": "林厝寮安檢所", "Zip_code": 654, "Address": "雲林縣四湖鄉林厝村中華路62巷98號", "X": 120.176938, "Y": 23.674767, "Note": "n\/a", "Tel": "(05)7720491" }, "geometry": { "type": "Point", "coordinates": [ 120.176938, 23.674767 ] } },
{ "type": "Feature", "properties": { "ID": 127, "Area": "中部地區巡防局", "Name": "溪仔崙安檢所", "Zip_code": 654, "Address": "雲林縣四湖鄉文化路20巷102號", "X": 120.175148, "Y": 23.672039, "Note": "n\/a", "Tel": "(05)7720591" }, "geometry": { "type": "Point", "coordinates": [ 120.175148, 23.672039 ] } },
{ "type": "Feature", "properties": { "ID": 128, "Area": "中部地區巡防局", "Name": "三條崙安檢所", "Zip_code": 654, "Address": "雲林縣四湖鄉崙北村海清路299-1號", "X": 120.151596, "Y": 23.657324, "Note": "n\/a", "Tel": "(05)7720551" }, "geometry": { "type": "Point", "coordinates": [ 120.151596, 23.657324 ] } },
{ "type": "Feature", "properties": { "ID": 129, "Area": "中部地區巡防局", "Name": "箔子寮安檢所", "Zip_code": 653, "Address": "雲林縣口湖鄉下崙村漁港路370號", "X": 120.147345, "Y": 23.618674, "Note": "n\/a", "Tel": "(05)7721330" }, "geometry": { "type": "Point", "coordinates": [ 120.147345, 23.618674 ] } },
{ "type": "Feature", "properties": { "ID": 130, "Area": "中部地區巡防局", "Name": "土銀安檢所", "Zip_code": 653, "Address": "雲林縣口湖鄉港溪村海豐路51號", "X": 120.148168, "Y": 23.577128, "Note": "n\/a", "Tel": "(05)7970153" }, "geometry": { "type": "Point", "coordinates": [ 120.148168, 23.577128 ] } },
{ "type": "Feature", "properties": { "ID": 131, "Area": "中部地區巡防局", "Name": "金湖安檢所", "Zip_code": 653, "Address": "雲林縣口湖鄉港溪村養漁路100號", "X": 120.170477, "Y": 23.577585, "Note": "n\/a", "Tel": "(05)7970152" }, "geometry": { "type": "Point", "coordinates": [ 120.170477, 23.577585 ] } },
{ "type": "Feature", "properties": { "ID": 132, "Area": "中部地區巡防局", "Name": "台子港安檢所", "Zip_code": 653, "Address": "雲林縣口湖鄉台子村台興路85號", "X": 120.140327, "Y": 23.559335, "Note": "n\/a", "Tel": "(05)7970162" }, "geometry": { "type": "Point", "coordinates": [ 120.140327, 23.559335 ] } },
{ "type": "Feature", "properties": { "ID": 133, "Area": "中部地區巡防局", "Name": "成龍安檢所", "Zip_code": 653, "Address": "雲林縣口湖鄉台興路260號", "X": 120.144063, "Y": 23.566133, "Note": "n\/a", "Tel": "(05)7970151" }, "geometry": { "type": "Point", "coordinates": [ 120.144063, 23.566133 ] } },
{ "type": "Feature", "properties": { "ID": 134, "Area": "中部地區巡防局", "Name": "下湖口安檢所", "Zip_code": 653, "Address": "雲林縣口湖鄉湖口村250號", "X": 120.164704, "Y": 23.530488, "Note": "n\/a", "Tel": "(05)7905296" }, "geometry": { "type": "Point", "coordinates": [ 120.164704, 23.530488 ] } },
{ "type": "Feature", "properties": { "ID": 135, "Area": "中部地區巡防局", "Name": "副瀨安檢所", "Zip_code": 614, "Address": "嘉義縣東石鄉副瀨村副瀨87-26號", "X": 120.171193, "Y": 23.486067, "Note": "n\/a", "Tel": "(05)3731770" }, "geometry": { "type": "Point", "coordinates": [ 120.171193, 23.486067 ] } },
{ "type": "Feature", "properties": { "ID": 136, "Area": "中部地區巡防局", "Name": "型厝安檢所", "Zip_code": 614, "Address": "嘉義縣東石鄉型厝村220號", "X": 120.161817, "Y": 23.480086, "Note": "n\/a", "Tel": "(05)3734911" }, "geometry": { "type": "Point", "coordinates": [ 120.161817, 23.480086 ] } },
{ "type": "Feature", "properties": { "ID": 137, "Area": "中部地區巡防局", "Name": "塭港安檢所", "Zip_code": 614, "Address": "嘉義縣東石鄉塭港村19 鄰220 號", "X": 120.148826, "Y": 23.468075, "Note": "n\/a", "Tel": "(05)3731410" }, "geometry": { "type": "Point", "coordinates": [ 120.148826, 23.468075 ] } },
{ "type": "Feature", "properties": { "ID": 138, "Area": "中部地區巡防局", "Name": "下庄安檢所", "Zip_code": 614, "Address": "嘉義縣東石鄉塭港村52-50號", "X": 120.148826, "Y": 23.468075, "Note": "n\/a", "Tel": "(05)3731485" }, "geometry": { "type": "Point", "coordinates": [ 120.148826, 23.468075 ] } },
{ "type": "Feature", "properties": { "ID": 139, "Area": "中部地區巡防局", "Name": "東石安檢所", "Zip_code": 614, "Address": "嘉義縣東石鄉東石村觀海一路161號", "X": 120.14376, "Y": 23.452396, "Note": "n\/a", "Tel": "(05)3731431" }, "geometry": { "type": "Point", "coordinates": [ 120.14376, 23.452396 ] } },
{ "type": "Feature", "properties": { "ID": 140, "Area": "中部地區巡防局", "Name": "網?安檢所", "Zip_code": 614, "Address": "嘉義縣東石鄉網寮村59-10號", "X": 120.156044, "Y": 23.438349, "Note": "n\/a", "Tel": "(05)3453961" }, "geometry": { "type": "Point", "coordinates": [ 120.156044, 23.438349 ] } },
{ "type": "Feature", "properties": { "ID": 141, "Area": "中部地區巡防局", "Name": "白水湖安檢所", "Zip_code": 614, "Address": "嘉義縣東石鄉掌潭村白水湖63-1號", "X": 120.151135, "Y": 23.40682, "Note": "n\/a", "Tel": "(05)3454475" }, "geometry": { "type": "Point", "coordinates": [ 120.151135, 23.40682 ] } },
{ "type": "Feature", "properties": { "ID": 142, "Area": "中部地區巡防局", "Name": "布袋北安檢所", "Zip_code": 625, "Address": "嘉義縣布袋鎮中山路334-1號", "X": 120.148446, "Y": 23.379915, "Note": "n\/a", "Tel": "(05)3474329" }, "geometry": { "type": "Point", "coordinates": [ 120.148446, 23.379915 ] } },
{ "type": "Feature", "properties": { "ID": 143, "Area": "中部地區巡防局", "Name": "布袋中安檢所", "Zip_code": 625, "Address": "嘉義縣布袋鎮興中里村石寮路75號", "X": 120.158445, "Y": 23.379968, "Note": "n\/a", "Tel": "(05)3474420" }, "geometry": { "type": "Point", "coordinates": [ 120.158445, 23.379968 ] } },
{ "type": "Feature", "properties": { "ID": 144, "Area": "中部地區巡防局", "Name": "布袋商港安檢所", "Zip_code": 625, "Address": "嘉義縣布袋鎮岑海里海興街2號", "X": 120.148499, "Y": 23.380543, "Note": "n\/a", "Tel": "(05)3474200" }, "geometry": { "type": "Point", "coordinates": [ 120.148499, 23.380543 ] } },
{ "type": "Feature", "properties": { "ID": 145, "Area": "中部地區巡防局", "Name": "好美里安檢所", "Zip_code": 625, "Address": "嘉義縣布袋鎮好美里虎尾寮169-1號", "X": 120.141609, "Y": 23.352782, "Note": "n\/a", "Tel": "(05)3431441" }, "geometry": { "type": "Point", "coordinates": [ 120.141609, 23.352782 ] } },
{ "type": "Feature", "properties": { "ID": 146, "Area": "中部地區巡防局", "Name": "水頭商港安檢所", "Zip_code": 893, "Address": "金門縣西海路一段58號", "X": 118.291257, "Y": 24.412434, "Note": "n\/a", "Tel": "(082)320791" }, "geometry": { "type": "Point", "coordinates": [ 118.291257, 24.412434 ] } },
{ "type": "Feature", "properties": { "ID": 147, "Area": "中部地區巡防局", "Name": "田埔安檢所", "Zip_code": 890, "Address": "金門縣金沙鎮山后民俗村", "X": 118.42799, "Y": 24.4811, "Note": "無門牌地址", "Tel": "(082)354474" }, "geometry": { "type": "Point", "coordinates": [ 118.42799, 24.4811 ] } },
{ "type": "Feature", "properties": { "ID": 148, "Area": "中部地區巡防局", "Name": "復國墩安檢所", "Zip_code": 891, "Address": "金門縣金湖鎮溪湖里", "X": 118.4543, "Y": 24.4405, "Note": "無門牌地址", "Tel": "(082)337274" }, "geometry": { "type": "Point", "coordinates": [ 118.4543, 24.4405 ] } },
{ "type": "Feature", "properties": { "ID": 149, "Area": "中部地區巡防局", "Name": "料羅商港安檢所", "Zip_code": 891, "Address": "金門縣金湖鎮料羅港5號", "X": 118.409957, "Y": 24.436046, "Note": "n\/a", "Tel": "(082)336583" }, "geometry": { "type": "Point", "coordinates": [ 118.409957, 24.436046 ] } },
{ "type": "Feature", "properties": { "ID": 150, "Area": "中部地區巡防局", "Name": "新湖安檢所", "Zip_code": 891, "Address": "金門縣金湖鎮信義新村102號", "X": 118.427993, "Y": 24.437691, "Note": "n\/a", "Tel": "(082)337186" }, "geometry": { "type": "Point", "coordinates": [ 118.427993, 24.437691 ] } },
{ "type": "Feature", "properties": { "ID": 151, "Area": "中部地區巡防局", "Name": "九宮安檢所", "Zip_code": 894, "Address": "金門縣烈嶼鄉九宮安檢所", "X": 118.2351, "Y": 24.427974, "Note": "無門牌地址", "Tel": "(082)363911" }, "geometry": { "type": "Point", "coordinates": [ 118.2351, 24.427974 ] } },
{ "type": "Feature", "properties": { "ID": 152, "Area": "中部地區巡防局", "Name": "羅厝安檢所", "Zip_code": 894, "Address": "金門縣烈嶼鄉羅厝安檢所", "X": 118.247546, "Y": 24.428857, "Note": "無門牌地址", "Tel": "(082)363908" }, "geometry": { "type": "Point", "coordinates": [ 118.247546, 24.428857 ] } },
{ "type": "Feature", "properties": { "ID": 153, "Area": "南部地區巡防局", "Name": "柴山安檢所", "Zip_code": 80441, "Address": "高雄市鼓山區柴山93-1號", "X": 120.254188, "Y": 22.644425, "Note": "n\/a", "Tel": "(07)5250120" }, "geometry": { "type": "Point", "coordinates": [ 120.254188, 22.644425 ] } },
{ "type": "Feature", "properties": { "ID": 154, "Area": "南部地區巡防局", "Name": "一港口安檢所", "Zip_code": 80441, "Address": "高雄市鼓山區哨船街2-1號", "X": 120.267019, "Y": 22.617487, "Note": "n\/a", "Tel": "(07)5615854" }, "geometry": { "type": "Point", "coordinates": [ 120.267019, 22.617487 ] } },
{ "type": "Feature", "properties": { "ID": 155, "Area": "南部地區巡防局", "Name": "高雄商檢所", "Zip_code": 80444, "Address": "高雄市鼓山一路107號", "X": 120.27854, "Y": 22.627216, "Note": "n\/a", "Tel": "(07)5319958" }, "geometry": { "type": "Point", "coordinates": [ 120.27854, 22.627216 ] } },
{ "type": "Feature", "properties": { "ID": 156, "Area": "南部地區巡防局", "Name": "旗后安檢所", "Zip_code": 80541, "Address": "高雄市旗津區海岸路28號", "X": 120.268356, "Y": 22.614527, "Note": "n\/a", "Tel": "(07)5718574" }, "geometry": { "type": "Point", "coordinates": [ 120.268356, 22.614527 ] } },
{ "type": "Feature", "properties": { "ID": 157, "Area": "南部地區巡防局", "Name": "中興商檢所", "Zip_code": 80544, "Address": "高雄市旗津區北汕巷50-72號5樓", "X": 120.289233, "Y": 22.587914, "Note": "n\/a", "Tel": "(07)5718591" }, "geometry": { "type": "Point", "coordinates": [ 120.289233, 22.587914 ] } },
{ "type": "Feature", "properties": { "ID": 158, "Area": "南部地區巡防局", "Name": "二六安檢所", "Zip_code": 80546, "Address": "高雄市旗津區旗津一路1號", "X": 120.272936, "Y": 22.605664, "Note": "n\/a", "Tel": "(07)5718583" }, "geometry": { "type": "Point", "coordinates": [ 120.272936, 22.605664 ] } },
{ "type": "Feature", "properties": { "ID": 159, "Area": "南部地區巡防局", "Name": "中和安檢所", "Zip_code": 80546, "Address": "高雄市旗津區旗津一路3號", "X": 120.273013, "Y": 22.605713, "Note": "n\/a", "Tel": "(07)5718602" }, "geometry": { "type": "Point", "coordinates": [ 120.273013, 22.605713 ] } },
{ "type": "Feature", "properties": { "ID": 160, "Area": "南部地區巡防局", "Name": "大林蒲機動巡邏站", "Zip_code": 81264, "Address": "高雄市小港區南星路38號", "X": 120.361533, "Y": 22.510339, "Note": "n\/a", "Tel": "(07)8718254" }, "geometry": { "type": "Point", "coordinates": [ 120.361533, 22.510339 ] } },
{ "type": "Feature", "properties": { "ID": 161, "Area": "南部地區巡防局", "Name": "鳳鼻頭安檢所", "Zip_code": 81264, "Address": "高雄市小港區鳳鳴里16鄰南興路107號", "X": 120.359304, "Y": 22.509245, "Note": "無門牌地址", "Tel": "(07)8718259" }, "geometry": { "type": "Point", "coordinates": [ 120.359304, 22.509245 ] } },
{ "type": "Feature", "properties": { "ID": 162, "Area": "南部地區巡防局", "Name": "蚵寮漁港安檢所", "Zip_code": 72746, "Address": "台南市北門區雙春里73-20號", "X": 120.13006, "Y": 23.312246, "Note": "n\/a", "Tel": "(06)7863901" }, "geometry": { "type": "Point", "coordinates": [ 120.13006, 23.312246 ] } },
{ "type": "Feature", "properties": { "ID": 163, "Area": "南部地區巡防局", "Name": "北門安檢所", "Zip_code": 72742, "Address": "台南市北門區永隆里港北18號", "X": 120.117066, "Y": 23.276035, "Note": "n\/a", "Tel": "(06)7860236" }, "geometry": { "type": "Point", "coordinates": [ 120.117066, 23.276035 ] } },
{ "type": "Feature", "properties": { "ID": 164, "Area": "南部地區巡防局", "Name": "梨子塭安檢所", "Zip_code": 72744, "Address": "台南市北門區慈安里三寮灣385號", "X": 120.109741, "Y": 23.241465, "Note": "n\/a", "Tel": "(06)7850410" }, "geometry": { "type": "Point", "coordinates": [ 120.109741, 23.241465 ] } },
{ "type": "Feature", "properties": { "ID": 165, "Area": "南部地區巡防局", "Name": "蘆竹溝漁港安檢所", "Zip_code": 72744, "Address": "台南市北門區三光里蘆竹溝372-15號", "X": 120.109847, "Y": 23.233228, "Note": "n\/a", "Tel": "(06)7850409" }, "geometry": { "type": "Point", "coordinates": [ 120.109847, 23.233228 ] } },
{ "type": "Feature", "properties": { "ID": 166, "Area": "南部地區巡防局", "Name": "馬沙溝漁港安檢所", "Zip_code": 72549, "Address": "台南市將軍區長沙里126-5號", "X": 120.104072, "Y": 23.218322, "Note": "n\/a", "Tel": "(06)7931584" }, "geometry": { "type": "Point", "coordinates": [ 120.104072, 23.218322 ] } },
{ "type": "Feature", "properties": { "ID": 167, "Area": "南部地區巡防局", "Name": "將軍漁港安檢所", "Zip_code": 72549, "Address": "台南市將軍區平沙里13鄰150號", "X": 120.101184, "Y": 23.205495, "Note": "n\/a", "Tel": "(06)7930864" }, "geometry": { "type": "Point", "coordinates": [ 120.101184, 23.205495 ] } },
{ "type": "Feature", "properties": { "ID": 168, "Area": "南部地區巡防局", "Name": "青山漁港安檢所", "Zip_code": 72550, "Address": "台南市將軍區鯤鯓里50-2號", "X": 120.086743, "Y": 23.19509, "Note": "n\/a", "Tel": "(06)7920238" }, "geometry": { "type": "Point", "coordinates": [ 120.086743, 23.19509 ] } },
{ "type": "Feature", "properties": { "ID": 169, "Area": "南部地區巡防局", "Name": "西寮安檢所", "Zip_code": 72446, "Address": "台南市七股區西寮里53-50號", "X": 120.095408, "Y": 23.179838, "Note": "n\/a", "Tel": "(06)7800360" }, "geometry": { "type": "Point", "coordinates": [ 120.095408, 23.179838 ] } },
{ "type": "Feature", "properties": { "ID": 170, "Area": "南部地區巡防局", "Name": "鹽埕安檢所", "Zip_code": 72447, "Address": "台南市七股區鹽埕里273-1號", "X": 120.105125, "Y": 23.152314, "Note": "n\/a", "Tel": "(06)7800003" }, "geometry": { "type": "Point", "coordinates": [ 120.105125, 23.152314 ] } },
{ "type": "Feature", "properties": { "ID": 171, "Area": "南部地區巡防局", "Name": "下山漁港安檢所", "Zip_code": 72447, "Address": "台南市七股區龍山里209-9號", "X": 120.095408, "Y": 23.1261, "Note": "n\/a", "Tel": "(06)7872504" }, "geometry": { "type": "Point", "coordinates": [ 120.095408, 23.1261 ] } },
{ "type": "Feature", "properties": { "ID": 172, "Area": "南部地區巡防局", "Name": "海寮安檢所", "Zip_code": 72447, "Address": "台南市七股區龍山里215-3號", "X": 120.095408, "Y": 23.1261, "Note": "n\/a", "Tel": "(06)7873002" }, "geometry": { "type": "Point", "coordinates": [ 120.095408, 23.1261 ] } },
{ "type": "Feature", "properties": { "ID": 173, "Area": "南部地區巡防局", "Name": "北堤安檢所", "Zip_code": 72453, "Address": "台南市七股區海埔11-30號", "X": 120.082454, "Y": 23.08098, "Note": "n\/a", "Tel": "(06)7880173" }, "geometry": { "type": "Point", "coordinates": [ 120.082454, 23.08098 ] } },
{ "type": "Feature", "properties": { "ID": 174, "Area": "南部地區巡防局", "Name": "曾文溪安檢所", "Zip_code": 70956, "Address": "台南市安南區城西街3段1070-10號", "X": 120.077734, "Y": 23.056217, "Note": "n\/a", "Tel": "(06)2570423" }, "geometry": { "type": "Point", "coordinates": [ 120.077734, 23.056217 ] } },
{ "type": "Feature", "properties": { "ID": 175, "Area": "南部地區巡防局", "Name": "四草安檢所", "Zip_code": 70955, "Address": "台南市安南區北汕尾一路439巷72弄656號", "X": 120.122372, "Y": 23.017847, "Note": "n\/a", "Tel": "(06)2842463" }, "geometry": { "type": "Point", "coordinates": [ 120.122372, 23.017847 ] } },
{ "type": "Feature", "properties": { "ID": 176, "Area": "南部地區巡防局", "Name": "鹿耳門安檢所", "Zip_code": 71753, "Address": "台南市仁德區一甲鄉忠義路28號", "X": 120.263394, "Y": 22.974943, "Note": "n\/a", "Tel": "(06)2842285" }, "geometry": { "type": "Point", "coordinates": [ 120.263394, 22.974943 ] } },
{ "type": "Feature", "properties": { "ID": 177, "Area": "南部地區巡防局", "Name": "安平漁港安檢所", "Zip_code": 70841, "Address": "台南市安平區安港路1號", "X": 120.147868, "Y": 22.990907, "Note": "n\/a", "Tel": "(06)3911823" }, "geometry": { "type": "Point", "coordinates": [ 120.147868, 22.990907 ] } },
{ "type": "Feature", "properties": { "ID": 178, "Area": "南部地區巡防局", "Name": "安平商港安檢所", "Zip_code": 70841, "Address": "台南市安平區漁光路300號", "X": 120.15325, "Y": 22.985059, "Note": "n\/a", "Tel": "(06)3910973" }, "geometry": { "type": "Point", "coordinates": [ 120.15325, 22.985059 ] } },
{ "type": "Feature", "properties": { "ID": 179, "Area": "南部地區巡防局", "Name": "白砂崙安檢所", "Zip_code": 85241, "Address": "高雄市茄萣區福德里白沙路475巷120號", "X": 120.184053, "Y": 22.915279, "Note": "n\/a", "Tel": "(07)6904771" }, "geometry": { "type": "Point", "coordinates": [ 120.184053, 22.915279 ] } },
{ "type": "Feature", "properties": { "ID": 180, "Area": "南部地區巡防局", "Name": "頂茄萣安檢所", "Zip_code": 85242, "Address": "高雄市茄萣區嘉樂里濱海路70號", "X": 120.180353, "Y": 22.899169, "Note": "n\/a", "Tel": "(07)6905074" }, "geometry": { "type": "Point", "coordinates": [ 120.180353, 22.899169 ] } },
{ "type": "Feature", "properties": { "ID": 181, "Area": "南部地區巡防局", "Name": "興達安檢所", "Zip_code": 85243, "Address": "高雄市茄萣區大發路1號", "X": 120.193928, "Y": 22.866895, "Note": "n\/a", "Tel": "(07)6987206" }, "geometry": { "type": "Point", "coordinates": [ 120.193928, 22.866895 ] } },
{ "type": "Feature", "properties": { "ID": 182, "Area": "南部地區巡防局", "Name": "崎漏安檢所", "Zip_code": 82842, "Address": "高雄市永安區興達路1-10號", "X": 120.203163, "Y": 22.837927, "Note": "n\/a", "Tel": "(07)6912396" }, "geometry": { "type": "Point", "coordinates": [ 120.203163, 22.837927 ] } },
{ "type": "Feature", "properties": { "ID": 183, "Area": "南部地區巡防局", "Name": "烏林投安檢所", "Zip_code": 82842, "Address": "高雄市永安區興達路興達巷117號", "X": 120.205611, "Y": 22.83785, "Note": "n\/a", "Tel": "(07)6914049" }, "geometry": { "type": "Point", "coordinates": [ 120.205611, 22.83785 ] } },
{ "type": "Feature", "properties": { "ID": 184, "Area": "南部地區巡防局", "Name": "永新安檢所", "Zip_code": 82842, "Address": "高雄市永安區新興路27號", "X": 120.210497, "Y": 22.817567, "Note": "n\/a", "Tel": "(07)6913484" }, "geometry": { "type": "Point", "coordinates": [ 120.210497, 22.817567 ] } },
{ "type": "Feature", "properties": { "ID": 185, "Area": "南部地區巡防局", "Name": "文安安檢所", "Zip_code": 82744, "Address": "高雄市彌陀區舊港橫路87號", "X": 120.230945, "Y": 22.799663, "Note": "n\/a", "Tel": "(07)6197323" }, "geometry": { "type": "Point", "coordinates": [ 120.230945, 22.799663 ] } },
{ "type": "Feature", "properties": { "ID": 186, "Area": "南部地區巡防局", "Name": "彌陀安檢所", "Zip_code": 82744, "Address": "高雄市彌陀區南寮里漁港一街62號", "X": 120.256406, "Y": 22.726379, "Note": "n\/a", "Tel": "(07)6174816" }, "geometry": { "type": "Point", "coordinates": [ 120.256406, 22.726379 ] } },
{ "type": "Feature", "properties": { "ID": 187, "Area": "南部地區巡防局", "Name": "蚵子寮安檢所", "Zip_code": 82646, "Address": "高雄市梓官區廣澤路100號", "X": 120.25408, "Y": 22.728998, "Note": "n\/a", "Tel": "(07)6174433" }, "geometry": { "type": "Point", "coordinates": [ 120.25408, 22.728998 ] } },
{ "type": "Feature", "properties": { "ID": 188, "Area": "南部地區巡防局", "Name": "港嘴安檢所", "Zip_code": 83243, "Address": "高雄市林園區港嘴二路201號", "X": 120.38212, "Y": 22.492455, "Note": "n\/a", "Tel": "(07)6430530" }, "geometry": { "type": "Point", "coordinates": [ 120.38212, 22.492455 ] } },
{ "type": "Feature", "properties": { "ID": 189, "Area": "南部地區巡防局", "Name": "汕尾安檢所", "Zip_code": 83244, "Address": "高雄市林園區東汕里東汕路115號", "X": 120.411874, "Y": 22.477153, "Note": "n\/a", "Tel": "(07)6430543" }, "geometry": { "type": "Point", "coordinates": [ 120.411874, 22.477153 ] } },
{ "type": "Feature", "properties": { "ID": 190, "Area": "南部地區巡防局", "Name": "中芸安檢所", "Zip_code": 83244, "Address": "高雄市林園區北汕里中正路42之4號", "X": 120.453753, "Y": 22.470552, "Note": "n\/a", "Tel": "(07)6464388" }, "geometry": { "type": "Point", "coordinates": [ 120.453753, 22.470552 ] } },
{ "type": "Feature", "properties": { "ID": 191, "Area": "南部地區巡防局", "Name": "東港安檢所", "Zip_code": 92844, "Address": "屏東縣東港鎮朝安里新生一路71號", "X": 120.444247, "Y": 22.467081, "Note": "n\/a", "Tel": "(08)8353104" }, "geometry": { "type": "Point", "coordinates": [ 120.444247, 22.467081 ] } },
{ "type": "Feature", "properties": { "ID": 192, "Area": "南部地區巡防局", "Name": "鹽埔安檢所", "Zip_code": 92844, "Address": "屏東縣新園鄉共和村新興路1號", "X": 120.456999, "Y": 22.46914, "Note": "n\/a", "Tel": "(08)8325519" }, "geometry": { "type": "Point", "coordinates": [ 120.456999, 22.46914 ] } },
{ "type": "Feature", "properties": { "ID": 193, "Area": "南部地區巡防局", "Name": "大鵬灣安檢所", "Zip_code": 92848, "Address": "屏東縣東港鎮南平里南平路175-6號", "X": 120.478907, "Y": 22.433158, "Note": "n\/a", "Tel": "(08)8753040" }, "geometry": { "type": "Point", "coordinates": [ 120.478907, 22.433158 ] } },
{ "type": "Feature", "properties": { "ID": 194, "Area": "南部地區巡防局", "Name": "崎峰安檢所", "Zip_code": 92746, "Address": "屏東縣林邊鄉崎峰村裕後路83之1號", "X": 120.490865, "Y": 22.427286, "Note": "n\/a", "Tel": "(08)8757842" }, "geometry": { "type": "Point", "coordinates": [ 120.490865, 22.427286 ] } },
{ "type": "Feature", "properties": { "ID": 195, "Area": "南部地區巡防局", "Name": "水利村漁港安檢所", "Zip_code": 92745, "Address": "屏東縣林邊鄉水利村豐作路1之12號", "X": 120.505993, "Y": 22.420105, "Note": "n\/a", "Tel": "(08)8752991" }, "geometry": { "type": "Point", "coordinates": [ 120.505993, 22.420105 ] } },
{ "type": "Feature", "properties": { "ID": 196, "Area": "南部地區巡防局", "Name": "小琉球安檢所", "Zip_code": 92941, "Address": "屏東縣琉球鄉中福村1鄰三民路278號", "X": 120.382857, "Y": 22.352402, "Note": "n\/a", "Tel": "(08)8611048" }, "geometry": { "type": "Point", "coordinates": [ 120.382857, 22.352402 ] } },
{ "type": "Feature", "properties": { "ID": 197, "Area": "南部地區巡防局", "Name": "天福安檢所", "Zip_code": 92941, "Address": "屏東縣琉球鄉南福村13鄰中正路3號", "X": 120.357693, "Y": 22.324935, "Note": "n\/a", "Tel": "(08)8611273" }, "geometry": { "type": "Point", "coordinates": [ 120.357693, 22.324935 ] } },
{ "type": "Feature", "properties": { "ID": 198, "Area": "南部地區巡防局", "Name": "杉福安檢所", "Zip_code": 92942, "Address": "屏東縣琉球鄉杉福村10鄰復興路29之3號", "X": 120.372514, "Y": 22.349132, "Note": "n\/a", "Tel": "(08)8612547" }, "geometry": { "type": "Point", "coordinates": [ 120.372514, 22.349132 ] } },
{ "type": "Feature", "properties": { "ID": 199, "Area": "南部地區巡防局", "Name": "漁福安檢所", "Zip_code": 92943, "Address": "屏東縣琉球鄉漁福村3鄰三民路70號", "X": 120.387152, "Y": 22.34437, "Note": "n\/a", "Tel": "(08)8612014" }, "geometry": { "type": "Point", "coordinates": [ 120.387152, 22.34437 ] } },
{ "type": "Feature", "properties": { "ID": 200, "Area": "南部地區巡防局", "Name": "琉球新安檢所", "Zip_code": 92942, "Address": "屏東縣琉球鄉大福村仁愛路39號", "X": 120.371817, "Y": 22.335218, "Note": "n\/a", "Tel": "(08)8613904" }, "geometry": { "type": "Point", "coordinates": [ 120.371817, 22.335218 ] } },
{ "type": "Feature", "properties": { "ID": 201, "Area": "南部地區巡防局", "Name": "塭豐安檢所", "Zip_code": 93143, "Address": "屏東縣佳冬鄉焰塭村北興路6-3號", "X": 120.519557, "Y": 22.417176, "Note": "n\/a", "Tel": "(08)8661244" }, "geometry": { "type": "Point", "coordinates": [ 120.519557, 22.417176 ] } },
{ "type": "Feature", "properties": { "ID": 202, "Area": "南部地區巡防局", "Name": "頂寮安檢所", "Zip_code": 94043, "Address": "屏東縣佳冬鄉塭豐村南寮路501號", "X": 120.533449, "Y": 22.405166, "Note": "n\/a", "Tel": "(08)8661242" }, "geometry": { "type": "Point", "coordinates": [ 120.533449, 22.405166 ] } },
{ "type": "Feature", "properties": { "ID": 203, "Area": "南部地區巡防局", "Name": "下寮安檢所", "Zip_code": 94042, "Address": "屏東縣枋寮鄉大庄村德聖路37號", "X": 120.554714, "Y": 22.393066, "Note": "n\/a", "Tel": "(08)8715824" }, "geometry": { "type": "Point", "coordinates": [ 120.554714, 22.393066 ] } },
{ "type": "Feature", "properties": { "ID": 204, "Area": "南部地區巡防局", "Name": "枋寮漁港安檢所", "Zip_code": 94043, "Address": "屏東縣枋山鄉寶生村寶生路437-2號", "X": 120.594226, "Y": 22.363132, "Note": "n\/a", "Tel": "(08)8780672" }, "geometry": { "type": "Point", "coordinates": [ 120.594226, 22.363132 ] } },
{ "type": "Feature", "properties": { "ID": 205, "Area": "南部地區巡防局", "Name": "加祿堂安檢所", "Zip_code": 94145, "Address": "屏東縣枋山鄉加祿村48號", "X": 120.622866, "Y": 22.332059, "Note": "n\/a", "Tel": "(08)8721440" }, "geometry": { "type": "Point", "coordinates": [ 120.622866, 22.332059 ] } },
{ "type": "Feature", "properties": { "ID": 206, "Area": "南部地區巡防局", "Name": "枋山安檢所", "Zip_code": 94150, "Address": "屏東縣枋山鄉枋山路115號", "X": 120.653039, "Y": 22.26649, "Note": "n\/a", "Tel": "(08)8721846" }, "geometry": { "type": "Point", "coordinates": [ 120.653039, 22.26649 ] } },
{ "type": "Feature", "properties": { "ID": 207, "Area": "南部地區巡防局", "Name": "楓港安檢所", "Zip_code": 94151, "Address": "屏東縣枋山鄉善餘村下坪路37號", "X": 120.693318, "Y": 22.190296, "Note": "n\/a", "Tel": "(08)8770690" }, "geometry": { "type": "Point", "coordinates": [ 120.693318, 22.190296 ] } },
{ "type": "Feature", "properties": { "ID": 208, "Area": "南部地區巡防局", "Name": "社皆坑機動巡邏站", "Zip_code": 94443, "Address": "屏東縣車城鄉海口村尖山路46號", "X": 120.720625, "Y": 22.108389, "Note": "n\/a", "Tel": "(08)8770675" }, "geometry": { "type": "Point", "coordinates": [ 120.720625, 22.108389 ] } },
{ "type": "Feature", "properties": { "ID": 209, "Area": "南部地區巡防局", "Name": "海口漁港安檢所", "Zip_code": 94443, "Address": "屏東縣車城鄉海口村海口路1號", "X": 120.715505, "Y": 22.089411, "Note": "n\/a", "Tel": "(08)8825753" }, "geometry": { "type": "Point", "coordinates": [ 120.715505, 22.089411 ] } },
{ "type": "Feature", "properties": { "ID": 210, "Area": "南部地區巡防局", "Name": "後灣安檢所", "Zip_code": 94450, "Address": "屏東縣車城鄉後灣村1鄰後灣路26號", "X": 120.698215, "Y": 22.041173, "Note": "n\/a", "Tel": "(08)8825274" }, "geometry": { "type": "Point", "coordinates": [ 120.698215, 22.041173 ] } },
{ "type": "Feature", "properties": { "ID": 211, "Area": "南部地區巡防局", "Name": "山海安檢所", "Zip_code": 94646, "Address": "屏東縣恆春鎮山海山里5鄰山海路11之5號", "X": 120.74649, "Y": 21.977337, "Note": "n\/a", "Tel": "(08)8896522" }, "geometry": { "type": "Point", "coordinates": [ 120.74649, 21.977337 ] } },
{ "type": "Feature", "properties": { "ID": 212, "Area": "南部地區巡防局", "Name": "紅柴坑安檢所", "Zip_code": 94645, "Address": "屏東縣恆春鎮山海里13鄰紅柴路50號", "X": 120.718461, "Y": 21.974169, "Note": "n\/a", "Tel": "(08)8869523" }, "geometry": { "type": "Point", "coordinates": [ 120.718461, 21.974169 ] } },
{ "type": "Feature", "properties": { "ID": 213, "Area": "南部地區巡防局", "Name": "後壁湖安檢所", "Zip_code": 94645, "Address": "屏東縣恆春鎮大光里9鄰大光路79之40號", "X": 120.742674, "Y": 21.945012, "Note": "n\/a", "Tel": "(08)8866470" }, "geometry": { "type": "Point", "coordinates": [ 120.742674, 21.945012 ] } },
{ "type": "Feature", "properties": { "ID": 214, "Area": "南部地區巡防局", "Name": "潭仔灣安檢所", "Zip_code": 94644, "Address": "屏東縣恆春鎮墾丁里1鄰墾丁路638號", "X": 120.778723, "Y": 21.949901, "Note": "n\/a", "Tel": "(08)8862623" }, "geometry": { "type": "Point", "coordinates": [ 120.778723, 21.949901 ] } },
{ "type": "Feature", "properties": { "ID": 215, "Area": "南部地區巡防局", "Name": "香蕉灣安檢所", "Zip_code": 94644, "Address": "屏東縣恆春鎮鵝鑾里4鄰船帆路253號", "X": 120.831424, "Y": 21.925557, "Note": "n\/a", "Tel": "(08)8851480" }, "geometry": { "type": "Point", "coordinates": [ 120.831424, 21.925557 ] } },
{ "type": "Feature", "properties": { "ID": 216, "Area": "南部地區巡防局", "Name": "鼻頭安檢所", "Zip_code": 94644, "Address": "屏東縣恆春顉鵝鑾里1鄰鵝鑾路441號", "X": 120.849751, "Y": 21.906752, "Note": "n\/a", "Tel": "(08)8851489" }, "geometry": { "type": "Point", "coordinates": [ 120.849751, 21.906752 ] } },
{ "type": "Feature", "properties": { "ID": 217, "Area": "南部地區巡防局", "Name": "興海安檢所", "Zip_code": 94742, "Address": "屏東縣滿州鄉港口村13鄰興海路50號", "X": 120.841854, "Y": 21.980334, "Note": "n\/a", "Tel": "(08)8801955" }, "geometry": { "type": "Point", "coordinates": [ 120.841854, 21.980334 ] } },
{ "type": "Feature", "properties": { "ID": 218, "Area": "南部地區巡防局", "Name": "溪子口機動巡?站", "Zip_code": 94743, "Address": "屏東縣滿州鄉里德村5鄰山頂路100號", "X": 120.54876, "Y": 22.551976, "Note": "n\/a", "Tel": "(08)8802411" }, "geometry": { "type": "Point", "coordinates": [ 120.54876, 22.551976 ] } },
{ "type": "Feature", "properties": { "ID": 219, "Area": "南部地區巡防局", "Name": "南仁安檢所", "Zip_code": 94744, "Address": "屏東縣滿州鄉九棚村5鄰南仁路19號", "X": 120.891982, "Y": 22.088638, "Note": "n\/a", "Tel": "(08)8810423" }, "geometry": { "type": "Point", "coordinates": [ 120.891982, 22.088638 ] } },
{ "type": "Feature", "properties": { "ID": 220, "Area": "南部地區巡防局", "Name": "中山安檢所", "Zip_code": 94744, "Address": "屏東縣滿州鄉港仔村2鄰海墘路16之1號", "X": 120.891543, "Y": 22.138141, "Note": "n\/a", "Tel": "(08)8810432" }, "geometry": { "type": "Point", "coordinates": [ 120.891543, 22.138141 ] } },
{ "type": "Feature", "properties": { "ID": 221, "Area": "南部地區巡防局", "Name": "旭海安檢所", "Zip_code": 94543, "Address": "屏東縣牡丹鄉旭海村1鄰旭海路1號之1", "X": 120.887397, "Y": 22.194872, "Note": "n\/a", "Tel": "(08)8830444" }, "geometry": { "type": "Point", "coordinates": [ 120.887397, 22.194872 ] } },
{ "type": "Feature", "properties": { "ID": 222, "Area": "南部地區巡防局", "Name": "菜園安檢所", "Zip_code": 88054, "Address": "澎湖縣馬公市菜園里45-1號", "X": 119.6021, "Y": 23.55337, "Note": "n\/a", "Tel": "(06)9216047" }, "geometry": { "type": "Point", "coordinates": [ 119.6021, 23.55337 ] } },
{ "type": "Feature", "properties": { "ID": 223, "Area": "南部地區巡防局", "Name": "烏崁安檢所", "Zip_code": 88023, "Address": "澎湖縣馬公市烏崁里65-5號", "X": 119.623837, "Y": 23.550192, "Note": "n\/a", "Tel": "(06)9216065" }, "geometry": { "type": "Point", "coordinates": [ 119.623837, 23.550192 ] } },
{ "type": "Feature", "properties": { "ID": 224, "Area": "南部地區巡防局", "Name": "鎖港安檢所", "Zip_code": 88055, "Address": "澎湖縣馬公市鎖管港291號", "X": 119.577462, "Y": 23.570627, "Note": "n\/a", "Tel": "(06)9950324" }, "geometry": { "type": "Point", "coordinates": [ 119.577462, 23.570627 ] } },
{ "type": "Feature", "properties": { "ID": 225, "Area": "南部地區巡防局", "Name": "鐵線執檢區", "Zip_code": 88055, "Address": "澎湖縣馬公市鎖管港291號", "X": 119.577462, "Y": 23.570627, "Note": "n\/a", "Tel": "(06)9950324" }, "geometry": { "type": "Point", "coordinates": [ 119.577462, 23.570627 ] } },
{ "type": "Feature", "properties": { "ID": 226, "Area": "南部地區巡防局", "Name": "伍德執檢區", "Zip_code": 88055, "Address": "澎湖縣馬公市鎖管港291號", "X": 119.577462, "Y": 23.570627, "Note": "n\/a", "Tel": "(06)9950324" }, "geometry": { "type": "Point", "coordinates": [ 119.577462, 23.570627 ] } },
{ "type": "Feature", "properties": { "ID": 227, "Area": "南部地區巡防局", "Name": "山水安檢所", "Zip_code": 880, "Address": "澎湖縣馬公市山水里山水安檢所", "X": 119.596303, "Y": 23.516837, "Note": "無門牌地址", "Tel": "(06)9950314" }, "geometry": { "type": "Point", "coordinates": [ 119.596303, 23.516837 ] } },
{ "type": "Feature", "properties": { "ID": 228, "Area": "南部地區巡防局", "Name": "蒔裡前安檢所", "Zip_code": 88059, "Address": "澎湖縣馬公市蒔裡里1-5號", "X": 119.564463, "Y": 23.564517, "Note": "n\/a", "Tel": "(06)9950294" }, "geometry": { "type": "Point", "coordinates": [ 119.564463, 23.564517 ] } },
{ "type": "Feature", "properties": { "ID": 229, "Area": "南部地區巡防局", "Name": "蒔裡後安檢所", "Zip_code": 88059, "Address": "澎湖縣馬公市蒔裡里106之3號", "X": 119.577462, "Y": 23.570627, "Note": "n\/a", "Tel": "(06)9950304" }, "geometry": { "type": "Point", "coordinates": [ 119.577462, 23.570627 ] } },
{ "type": "Feature", "properties": { "ID": 230, "Area": "南部地區巡防局", "Name": "風櫃東安檢所", "Zip_code": 88058, "Address": "澎湖縣馬公市風櫃里118-1號", "X": 119.54702, "Y": 23.54325, "Note": "n\/a", "Tel": "(06)9950284" }, "geometry": { "type": "Point", "coordinates": [ 119.54702, 23.54325 ] } },
{ "type": "Feature", "properties": { "ID": 231, "Area": "南部地區巡防局", "Name": "風櫃西安檢所", "Zip_code": 88058, "Address": "澎湖縣馬公市風櫃里風櫃西安檢所", "X": 119.5448, "Y": 23.539, "Note": "無門牌地址", "Tel": "(06)9952675" }, "geometry": { "type": "Point", "coordinates": [ 119.5448, 23.539 ] } },
{ "type": "Feature", "properties": { "ID": 232, "Area": "南部地區巡防局", "Name": "尖山安檢所", "Zip_code": 88543, "Address": "澎湖縣湖西鄉尖山村16之4號", "X": 119.668725, "Y": 23.565475, "Note": "n\/a", "Tel": "(06)9920070" }, "geometry": { "type": "Point", "coordinates": [ 119.668725, 23.565475 ] } },
{ "type": "Feature", "properties": { "ID": 233, "Area": "南部地區巡防局", "Name": "龍門安檢所", "Zip_code": 88543, "Address": "澎湖縣湖西鄉良文港119之39號", "X": 119.674773, "Y": 23.561811, "Note": "n\/a", "Tel": "(06)9920073" }, "geometry": { "type": "Point", "coordinates": [ 119.674773, 23.561811 ] } },
{ "type": "Feature", "properties": { "ID": 234, "Area": "南部地區巡防局", "Name": "果葉安檢所", "Zip_code": 88543, "Address": "澎湖縣湖西鄉果葉村91-6號", "X": 119.661505, "Y": 23.577368, "Note": "n\/a", "Tel": "(06)9920072" }, "geometry": { "type": "Point", "coordinates": [ 119.661505, 23.577368 ] } },
{ "type": "Feature", "properties": { "ID": 235, "Area": "南部地區巡防局", "Name": "南北寮安檢所", "Zip_code": 88542, "Address": "澎湖縣湖西鄉北寮村23號", "X": 119.669689, "Y": 23.598503, "Note": "n\/a", "Tel": "(06)9920075" }, "geometry": { "type": "Point", "coordinates": [ 119.669689, 23.598503 ] } },
{ "type": "Feature", "properties": { "ID": 236, "Area": "南部地區巡防局", "Name": "白坑安檢所", "Zip_code": 88542, "Address": "澎湖縣湖西鄉白坑村12-4號", "X": 119.65716, "Y": 23.595789, "Note": "n\/a", "Tel": "(06)9920071" }, "geometry": { "type": "Point", "coordinates": [ 119.65716, 23.595789 ] } },
{ "type": "Feature", "properties": { "ID": 237, "Area": "南部地區巡防局", "Name": "紅蘿安檢所", "Zip_code": 88541, "Address": "澎湖縣湖西鄉紅羅村130號", "X": 119.647019, "Y": 23.588476, "Note": "n\/a", "Tel": "(06)9920092" }, "geometry": { "type": "Point", "coordinates": [ 119.647019, 23.588476 ] } },
{ "type": "Feature", "properties": { "ID": 238, "Area": "南部地區巡防局", "Name": "虎井安檢所", "Zip_code": 88057, "Address": "澎湖縣馬公市虎井里76-3號", "X": 119.526722, "Y": 23.490825, "Note": "n\/a", "Tel": "(06)9291245" }, "geometry": { "type": "Point", "coordinates": [ 119.526722, 23.490825 ] } },
{ "type": "Feature", "properties": { "ID": 239, "Area": "南部地區巡防局", "Name": "桶盤安檢所", "Zip_code": 88060, "Address": "澎湖縣馬公市桶盤29-1號", "X": 119.517502, "Y": 23.513414, "Note": "n\/a", "Tel": "(06)9291246" }, "geometry": { "type": "Point", "coordinates": [ 119.517502, 23.513414 ] } },
{ "type": "Feature", "properties": { "ID": 240, "Area": "南部地區巡防局", "Name": "潭門安檢所", "Zip_code": 88241, "Address": "澎湖縣望安鄉東安村2號之9", "X": 119.50642, "Y": 23.357452, "Note": "n\/a", "Tel": "(06)9991843" }, "geometry": { "type": "Point", "coordinates": [ 119.50642, 23.357452 ] } },
{ "type": "Feature", "properties": { "ID": 241, "Area": "南部地區巡防局", "Name": "將軍南安檢所", "Zip_code": 88842, "Address": "澎湖縣望安鄉將軍澳165號", "X": 119.50207, "Y": 23.359697, "Note": "n\/a", "Tel": "(06)9902376" }, "geometry": { "type": "Point", "coordinates": [ 119.50207, 23.359697 ] } },
{ "type": "Feature", "properties": { "ID": 242, "Area": "南部地區巡防局", "Name": "七美安檢所", "Zip_code": 88341, "Address": "澎湖縣七美鄉南港村26-3", "X": 119.425187, "Y": 23.196004, "Note": "n\/a", "Tel": "(06)9972115" }, "geometry": { "type": "Point", "coordinates": [ 119.425187, 23.196004 ] } },
{ "type": "Feature", "properties": { "ID": 243, "Area": "南部地區巡防局", "Name": "東吉安檢所", "Zip_code": 88243, "Address": "澎湖縣望安鄉東吉村東吉補網場", "X": 119.668748, "Y": 23.251164, "Note": "無門牌地址", "Tel": "(06)9991145" }, "geometry": { "type": "Point", "coordinates": [ 119.668748, 23.251164 ] } },
{ "type": "Feature", "properties": { "ID": 244, "Area": "南部地區巡防局", "Name": "東嶼坪安檢所", "Zip_code": 88844, "Address": "澎湖縣望安鄉東坪村47號", "X": 119.515846, "Y": 23.25907, "Note": "n\/a", "Tel": "(06)9991607" }, "geometry": { "type": "Point", "coordinates": [ 119.515846, 23.25907 ] } },
{ "type": "Feature", "properties": { "ID": 245, "Area": "南部地區巡防局", "Name": "花嶼安檢所", "Zip_code": 88846, "Address": "澎湖縣望安鄉花嶼村94號之5", "X": 119.320679, "Y": 23.403694, "Note": "n\/a", "Tel": "(06)9991750" }, "geometry": { "type": "Point", "coordinates": [ 119.320679, 23.403694 ] } },
{ "type": "Feature", "properties": { "ID": 246, "Area": "南部地區巡防局", "Name": "沙港安檢所", "Zip_code": 88592, "Address": "澎湖縣湖西鄉沙港東村17鄰14之1號", "X": 119.62435, "Y": 23.599465, "Note": "n\/a", "Tel": "(06)9211435" }, "geometry": { "type": "Point", "coordinates": [ 119.62435, 23.599465 ] } },
{ "type": "Feature", "properties": { "ID": 247, "Area": "南部地區巡防局", "Name": "赤崁安檢所", "Zip_code": 88442, "Address": "澎湖縣白沙鄉赤崁村22鄰37之3號", "X": 119.599202, "Y": 23.667179, "Note": "n\/a", "Tel": "(06)9933472" }, "geometry": { "type": "Point", "coordinates": [ 119.599202, 23.667179 ] } },
{ "type": "Feature", "properties": { "ID": 248, "Area": "南部地區巡防局", "Name": "岐頭安檢所", "Zip_code": 88442, "Address": "澎湖縣白沙鄉岐頭村1鄰1之3號", "X": 119.607897, "Y": 23.651888, "Note": "n\/a", "Tel": "(06)9933446" }, "geometry": { "type": "Point", "coordinates": [ 119.607897, 23.651888 ] } },
{ "type": "Feature", "properties": { "ID": 249, "Area": "南部地區巡防局", "Name": "潭邊安檢所", "Zip_code": 88592, "Address": "澎湖縣湖西鄉潭邊村6鄰61號", "X": 119.610795, "Y": 23.594684, "Note": "n\/a", "Tel": "(06)9218986" }, "geometry": { "type": "Point", "coordinates": [ 119.610795, 23.594684 ] } },
{ "type": "Feature", "properties": { "ID": 250, "Area": "南部地區巡防局", "Name": "講美安檢所", "Zip_code": 88442, "Address": "澎湖縣白沙鄉講美村2鄰17之4號", "X": 119.599202, "Y": 23.632141, "Note": "n\/a", "Tel": "(06)9932504" }, "geometry": { "type": "Point", "coordinates": [ 119.599202, 23.632141 ] } },
{ "type": "Feature", "properties": { "ID": 251, "Area": "南部地區巡防局", "Name": "中屯安檢所", "Zip_code": 88491, "Address": "澎湖縣白沙鄉中屯村10鄰52之4號", "X": 119.607897, "Y": 23.614155, "Note": "n\/a", "Tel": "(06)9932574" }, "geometry": { "type": "Point", "coordinates": [ 119.607897, 23.614155 ] } },
{ "type": "Feature", "properties": { "ID": 252, "Area": "南部地區巡防局", "Name": "吉貝安檢所", "Zip_code": 88446, "Address": "澎湖縣白沙鄉吉貝村1鄰8之14號", "X": 119.614109, "Y": 23.741101, "Note": "n\/a", "Tel": "(06)9911032" }, "geometry": { "type": "Point", "coordinates": [ 119.614109, 23.741101 ] } },
{ "type": "Feature", "properties": { "ID": 253, "Area": "南部地區巡防局", "Name": "鳥嶼安檢所", "Zip_code": 88443, "Address": "澎湖縣白沙鄉鳥嶼村9鄰211號", "X": 119.657072, "Y": 23.660176, "Note": "n\/a", "Tel": "(06)9916184" }, "geometry": { "type": "Point", "coordinates": [ 119.657072, 23.660176 ] } },
{ "type": "Feature", "properties": { "ID": 254, "Area": "南部地區巡防局", "Name": "大倉安檢所", "Zip_code": 88445, "Address": "澎湖縣白沙鄉大倉村1鄰1號", "X": 119.56804, "Y": 23.619093, "Note": "n\/a", "Tel": "(06)9932514" }, "geometry": { "type": "Point", "coordinates": [ 119.56804, 23.619093 ] } },
{ "type": "Feature", "properties": { "ID": 255, "Area": "南部地區巡防局", "Name": "員貝安檢所", "Zip_code": 88444, "Address": "澎湖縣白沙鄉員貝村6鄰8之10號", "X": 119.633255, "Y": 23.648611, "Note": "n\/a", "Tel": "(06)9932454" }, "geometry": { "type": "Point", "coordinates": [ 119.633255, 23.648611 ] } },
{ "type": "Feature", "properties": { "ID": 256, "Area": "南部地區巡防局", "Name": "內垵?安檢所", "Zip_code": 88142, "Address": "澎湖縣西嶼鄉內垵村18鄰227之15號", "X": 119.500824, "Y": 23.575091, "Note": "n\/a", "Tel": "(06)9981444" }, "geometry": { "type": "Point", "coordinates": [ 119.500824, 23.575091 ] } },
{ "type": "Feature", "properties": { "ID": 257, "Area": "南部地區巡防局", "Name": "大池安檢所", "Zip_code": 88141, "Address": "澎湖縣西嶼鄉大池角13鄰1之3號", "X": 119.503435, "Y": 23.619789, "Note": "n\/a", "Tel": "(06)9983788" }, "geometry": { "type": "Point", "coordinates": [ 119.503435, 23.619789 ] } },
{ "type": "Feature", "properties": { "ID": 258, "Area": "南部地區巡防局", "Name": "赤馬安檢所", "Zip_code": 88142, "Address": "澎湖縣西嶼鄉池中村4鄰大??10之2號", "X": 119.513671, "Y": 23.605458, "Note": "n\/a", "Tel": "(06)9983796" }, "geometry": { "type": "Point", "coordinates": [ 119.513671, 23.605458 ] } },
{ "type": "Feature", "properties": { "ID": 259, "Area": "南部地區巡防局", "Name": "外垵安檢所", "Zip_code": 88143, "Address": "澎湖縣西嶼鄉外垵村12鄰89之1號", "X": 119.484666, "Y": 23.568319, "Note": "n\/a", "Tel": "(06)9983801" }, "geometry": { "type": "Point", "coordinates": [ 119.484666, 23.568319 ] } },
{ "type": "Feature", "properties": { "ID": 260, "Area": "南部地區巡防局", "Name": "小門安檢所", "Zip_code": 88141, "Address": "澎湖縣西嶼鄉小門村6鄰22號", "X": 119.520921, "Y": 23.651146, "Note": "n\/a", "Tel": "(06)9984149" }, "geometry": { "type": "Point", "coordinates": [ 119.520921, 23.651146 ] } },
{ "type": "Feature", "properties": { "ID": 261, "Area": "南部地區巡防局", "Name": "竹灣安檢所", "Zip_code": 88141, "Address": "澎湖縣西嶼鄉竹篙灣村19鄰69之2號", "X": 119.525015, "Y": 23.631113, "Note": "n\/a", "Tel": "(06)9983773" }, "geometry": { "type": "Point", "coordinates": [ 119.525015, 23.631113 ] } },
{ "type": "Feature", "properties": { "ID": 262, "Area": "南部地區巡防局", "Name": "合界執檢區", "Zip_code": 88141, "Address": "澎湖縣西嶼鄉合界村7鄰52之1號", "X": 119.526722, "Y": 23.636456, "Note": "n\/a", "Tel": "(06)9983805" }, "geometry": { "type": "Point", "coordinates": [ 119.526722, 23.636456 ] } },
{ "type": "Feature", "properties": { "ID": 263, "Area": "南部地區巡防局", "Name": "橫礁安檢所", "Zip_code": 88141, "Address": "澎湖縣西嶼鄉橫礁村6鄰31之2號", "X": 119.538992, "Y": 23.633597, "Note": "n\/a", "Tel": "(06)9983769" }, "geometry": { "type": "Point", "coordinates": [ 119.538992, 23.633597 ] } },
{ "type": "Feature", "properties": { "ID": 264, "Area": "南部地區巡防局", "Name": "後?安檢所", "Zip_code": 88141, "Address": "澎湖縣白沙鄉後寮村1鄰104之17號", "X": 119.574896, "Y": 23.666002, "Note": "n\/a", "Tel": "(06)9932584" }, "geometry": { "type": "Point", "coordinates": [ 119.574896, 23.666002 ] } },
{ "type": "Feature", "properties": { "ID": 265, "Area": "南部地區巡防局", "Name": "通樑安檢所", "Zip_code": 88141, "Address": "澎湖縣白沙鄉通樑村10鄰161之4號", "X": 119.594854, "Y": 23.664044, "Note": "n\/a", "Tel": "(06)9932604" }, "geometry": { "type": "Point", "coordinates": [ 119.594854, 23.664044 ] } },
{ "type": "Feature", "properties": { "ID": 266, "Area": "南部地區巡防局", "Name": "瓦硐安檢所", "Zip_code": 88141, "Address": "澎湖縣白沙鄉瓦硐村10鄰103之1號", "X": 119.587607, "Y": 23.656123, "Note": "n\/a", "Tel": "(06)9932674" }, "geometry": { "type": "Point", "coordinates": [ 119.587607, 23.656123 ] } },
{ "type": "Feature", "properties": { "ID": 267, "Area": "南部地區巡防局", "Name": "內垵南安檢所", "Zip_code": 88142, "Address": "澎湖縣西嶼鄉內垵村4鄰45之3號", "X": 119.50787, "Y": 23.568903, "Note": "n\/a", "Tel": "(06)9983803" }, "geometry": { "type": "Point", "coordinates": [ 119.50787, 23.568903 ] } },
{ "type": "Feature", "properties": { "ID": 268, "Area": "東部地區巡防局", "Name": "興昌機動站", "Zip_code": 95942, "Address": "台東縣東河鄉興昌村十鄰56之1號", "X": 121.245467, "Y": 22.912726, "Note": "n\/a", "Tel": "(089)531475" }, "geometry": { "type": "Point", "coordinates": [ 121.245467, 22.912726 ] } },
{ "type": "Feature", "properties": { "ID": 269, "Area": "東部地區巡防局", "Name": "新蘭安檢所", "Zip_code": 95941, "Address": "台東縣東河鄉都蘭村郡界12之4號", "X": 121.201827, "Y": 22.860899, "Note": "n\/a", "Tel": "(089)781716" }, "geometry": { "type": "Point", "coordinates": [ 121.201827, 22.860899 ] } },
{ "type": "Feature", "properties": { "ID": 270, "Area": "東部地區巡防局", "Name": "漁場安檢所", "Zip_code": 95941, "Address": "台東縣卑南鄉富山村漁場136號", "X": 121.176766, "Y": 22.831674, "Note": "n\/a", "Tel": "(089)281657" }, "geometry": { "type": "Point", "coordinates": [ 121.176766, 22.831674 ] } },
{ "type": "Feature", "properties": { "ID": 271, "Area": "東部地區巡防局", "Name": "伽藍安檢所", "Zip_code": 95057, "Address": "台東市富岡街299號", "X": 121.191649, "Y": 22.791939, "Note": "n\/a", "Tel": "(089)280468" }, "geometry": { "type": "Point", "coordinates": [ 121.191649, 22.791939 ] } },
{ "type": "Feature", "properties": { "ID": 272, "Area": "東部地區巡防局", "Name": "三和安檢所", "Zip_code": 96343, "Address": "台東縣太麻里鄉三和村漁場81號", "X": 121.019175, "Y": 22.670826, "Note": "n\/a", "Tel": "(089)516810" }, "geometry": { "type": "Point", "coordinates": [ 121.019175, 22.670826 ] } },
{ "type": "Feature", "properties": { "ID": 273, "Area": "東部地區巡防局", "Name": "大竹機動站", "Zip_code": 96542, "Address": "台東縣大武鄉大竹村174之2號", "X": 120.924522, "Y": 22.437273, "Note": "n\/a", "Tel": "(089)761916" }, "geometry": { "type": "Point", "coordinates": [ 120.924522, 22.437273 ] } },
{ "type": "Feature", "properties": { "ID": 274, "Area": "東部地區巡防局", "Name": "美和安檢所", "Zip_code": 96343, "Address": "台東縣太麻里鄉美和村三鄰28之1號", "X": 121.027817, "Y": 22.671559, "Note": "n\/a", "Tel": "(089)516914" }, "geometry": { "type": "Point", "coordinates": [ 121.027817, 22.671559 ] } },
{ "type": "Feature", "properties": { "ID": 275, "Area": "東部地區巡防局", "Name": "香蘭安檢所", "Zip_code": 96341, "Address": "台東縣太麻里鄉新香蘭村12之2號", "X": 120.989236, "Y": 22.581931, "Note": "n\/a", "Tel": "(089)781716" }, "geometry": { "type": "Point", "coordinates": [ 120.989236, 22.581931 ] } },
{ "type": "Feature", "properties": { "ID": 276, "Area": "東部地區巡防局", "Name": "大武安檢所", "Zip_code": 96541, "Address": "台東縣大武鄉尚武客庄路66號", "X": 120.89269, "Y": 22.338919, "Note": "n\/a", "Tel": "(089)791410" }, "geometry": { "type": "Point", "coordinates": [ 120.89269, 22.338919 ] } },
{ "type": "Feature", "properties": { "ID": 277, "Area": "東部地區巡防局", "Name": "綠島安檢所", "Zip_code": 95141, "Address": "台東縣綠島鄉南寮村漁港路1之1號", "X": 121.474696, "Y": 22.661021, "Note": "n\/a", "Tel": "(089)671142" }, "geometry": { "type": "Point", "coordinates": [ 121.474696, 22.661021 ] } },
{ "type": "Feature", "properties": { "ID": 278, "Area": "東部地區巡防局", "Name": "公館安檢所", "Zip_code": 95142, "Address": "台東縣綠島鄉公館村將軍岩路5號", "X": 121.490144, "Y": 22.662089, "Note": "n\/a", "Tel": "(089)672011" }, "geometry": { "type": "Point", "coordinates": [ 121.490144, 22.662089 ] } },
{ "type": "Feature", "properties": { "ID": 279, "Area": "東部地區巡防局", "Name": "開元安檢所", "Zip_code": 95241, "Address": "台東縣蘭嶼鄉椰油村296號", "X": 121.519872, "Y": 22.054974, "Note": "n\/a", "Tel": "(089)731054" }, "geometry": { "type": "Point", "coordinates": [ 121.519872, 22.054974 ] } },
{ "type": "Feature", "properties": { "ID": 280, "Area": "東部地區巡防局", "Name": "新社安檢所", "Zip_code": 97791, "Address": "花蓮縣豐濱鄉豐濱村17鄰小港1-1號", "X": 121.479895, "Y": 23.590322, "Note": "n\/a", "Tel": "(03)8791375" }, "geometry": { "type": "Point", "coordinates": [ 121.479895, 23.590322 ] } },
{ "type": "Feature", "properties": { "ID": 281, "Area": "東部地區巡防局", "Name": "石梯安檢所", "Zip_code": 97792, "Address": "花蓮縣豐濱鄉港口村石梯灣78號", "X": 121.502856, "Y": 23.476419, "Note": "n\/a", "Tel": "(03)8781423" }, "geometry": { "type": "Point", "coordinates": [ 121.502856, 23.476419 ] } },
{ "type": "Feature", "properties": { "ID": 282, "Area": "東部地區巡防局", "Name": "長濱安檢所", "Zip_code": 96241, "Address": "台東縣長濱鄉長濱村15鄰181-2號", "X": 121.448475, "Y": 23.318062, "Note": "n\/a", "Tel": "(089)831174" }, "geometry": { "type": "Point", "coordinates": [ 121.448475, 23.318062 ] } },
{ "type": "Feature", "properties": { "ID": 283, "Area": "東部地區巡防局", "Name": "小港安檢所", "Zip_code": 96141, "Address": "台東縣成功鎮美山路63號", "X": 121.397374, "Y": 23.15071, "Note": "n\/a", "Tel": "(089)871759" }, "geometry": { "type": "Point", "coordinates": [ 121.397374, 23.15071 ] } },
{ "type": "Feature", "properties": { "ID": 284, "Area": "東部地區巡防局", "Name": "基翬安檢所", "Zip_code": 96141, "Address": "台東縣成功鎮基翬路56號", "X": 121.402019, "Y": 23.121803, "Note": "n\/a", "Tel": "(089)851744" }, "geometry": { "type": "Point", "coordinates": [ 121.402019, 23.121803 ] } },
{ "type": "Feature", "properties": { "ID": 285, "Area": "東部地區巡防局", "Name": "新港安檢所", "Zip_code": 96143, "Address": "台東縣成功鎮港邊路19-1號", "X": 121.380201, "Y": 23.099222, "Note": "n\/a", "Tel": "(089)854562" }, "geometry": { "type": "Point", "coordinates": [ 121.380201, 23.099222 ] } },
{ "type": "Feature", "properties": { "ID": 286, "Area": "東部地區巡防局", "Name": "叭嗡嗡機動站", "Zip_code": 96144, "Address": "台東縣成功鎮豐田路3號", "X": 121.342959, "Y": 23.049406, "Note": "n\/a", "Tel": "(089)841145" }, "geometry": { "type": "Point", "coordinates": [ 121.342959, 23.049406 ] } },
{ "type": "Feature", "properties": { "ID": 287, "Area": "東部地區巡防局", "Name": "金樽安檢所", "Zip_code": 95942, "Address": "台東縣東河鄉東河村1鄰金樽路2號", "X": 121.294224, "Y": 22.955797, "Note": "n\/a", "Tel": "(089)896670" }, "geometry": { "type": "Point", "coordinates": [ 121.294224, 22.955797 ] } },
{ "type": "Feature", "properties": { "ID": 288, "Area": "東部地區巡防局", "Name": "和平安檢所", "Zip_code": 97291, "Address": "花蓮縣秀林鄉和平村和工5路6號", "X": 121.762106, "Y": 24.309847, "Note": "n\/a", "Tel": "(03)8682110" }, "geometry": { "type": "Point", "coordinates": [ 121.762106, 24.309847 ] } },
{ "type": "Feature", "properties": { "ID": 289, "Area": "東部地區巡防局", "Name": "和仁安檢所", "Zip_code": 97291, "Address": "花蓮縣秀林鄉和平村和仁9之1號", "X": 121.726695, "Y": 24.247024, "Note": "n\/a", "Tel": "(03)8681224" }, "geometry": { "type": "Point", "coordinates": [ 121.726695, 24.247024 ] } },
{ "type": "Feature", "properties": { "ID": 290, "Area": "東部地區巡防局", "Name": "板下安檢所", "Zip_code": 97253, "Address": "花蓮縣秀林鄉崇德村海濱路98-3號", "X": 121.654208, "Y": 24.16935, "Note": "n\/a", "Tel": "(03)8621254" }, "geometry": { "type": "Point", "coordinates": [ 121.654208, 24.16935 ] } },
{ "type": "Feature", "properties": { "ID": 291, "Area": "東部地區巡防局", "Name": "崇德安檢所", "Zip_code": 97253, "Address": "花蓮縣秀林鄉崇德村21號", "X": 121.639718, "Y": 24.212847, "Note": "n\/a", "Tel": "(03)8621977" }, "geometry": { "type": "Point", "coordinates": [ 121.639718, 24.212847 ] } },
{ "type": "Feature", "properties": { "ID": 292, "Area": "東部地區巡防局", "Name": "順安安檢所", "Zip_code": 97162, "Address": "花蓮縣新城鄉順安村草林路10之2號", "X": 121.638501, "Y": 24.118857, "Note": "n\/a", "Tel": "(03)8611852" }, "geometry": { "type": "Point", "coordinates": [ 121.638501, 24.118857 ] } },
{ "type": "Feature", "properties": { "ID": 293, "Area": "東部地區巡防局", "Name": "沙東機動站", "Zip_code": 97149, "Address": "花蓮縣新城鄉康樂村南三棧41之1號", "X": 121.614651, "Y": 24.099524, "Note": "n\/a", "Tel": "(03)8264835" }, "geometry": { "type": "Point", "coordinates": [ 121.614651, 24.099524 ] } },
{ "type": "Feature", "properties": { "ID": 294, "Area": "東部地區巡防局", "Name": "康樂安檢所", "Zip_code": 97149, "Address": "花蓮縣新城鄉康樂村海岸路28號", "X": 121.615537, "Y": 24.096597, "Note": "n\/a", "Tel": "(03)8269753" }, "geometry": { "type": "Point", "coordinates": [ 121.615537, 24.096597 ] } },
{ "type": "Feature", "properties": { "ID": 295, "Area": "東部地區巡防局", "Name": "北埔安檢所", "Zip_code": 97149, "Address": "花蓮縣新城鄉大漢村漁場街1之1號 ", "X": 121.621828, "Y": 24.041419, "Note": "n\/a", "Tel": "(03)8262549" }, "geometry": { "type": "Point", "coordinates": [ 121.621828, 24.041419 ] } },
{ "type": "Feature", "properties": { "ID": 296, "Area": "東部地區巡防局", "Name": "七星潭安檢所", "Zip_code": 97149, "Address": "花蓮縣新城鄉大漢村七星街56巷12號", "X": 121.632944, "Y": 24.025155, "Note": "n\/a", "Tel": "(03)8230934" }, "geometry": { "type": "Point", "coordinates": [ 121.632944, 24.025155 ] } },
{ "type": "Feature", "properties": { "ID": 297, "Area": "東部地區巡防局", "Name": "花蓮漁港安檢所", "Zip_code": 97064, "Address": "花蓮市民孝里港濱路41之3號", "X": 121.638465, "Y": 24.006354, "Note": "n\/a", "Tel": "(03)8230363" }, "geometry": { "type": "Point", "coordinates": [ 121.638465, 24.006354 ] } },
{ "type": "Feature", "properties": { "ID": 298, "Area": "東部地區巡防局", "Name": "花蓮商港安檢所", "Zip_code": 97041, "Address": "花蓮市港濱路11之1號", "X": 121.638531, "Y": 24.006229, "Note": "n\/a", "Tel": "(03)8239816" }, "geometry": { "type": "Point", "coordinates": [ 121.638531, 24.006229 ] } },
{ "type": "Feature", "properties": { "ID": 299, "Area": "東部地區巡防局", "Name": "七星潭安檢所", "Zip_code": 97148, "Address": "花蓮縣新城鄉大漢村七星街56巷12號", "X": 121.632944, "Y": 24.025155, "Note": "n\/a", "Tel": "(03)8230934" }, "geometry": { "type": "Point", "coordinates": [ 121.632944, 24.025155 ] } },
{ "type": "Feature", "properties": { "ID": 300, "Area": "東部地區巡防局", "Name": "南濱守望哨", "Zip_code": 97353, "Address": "花蓮縣吉安鄉東昌村榮光1號", "X": 121.59693, "Y": 23.959807, "Note": "n\/a", "Tel": "988918907" }, "geometry": { "type": "Point", "coordinates": [ 121.59693, 23.959807 ] } },
{ "type": "Feature", "properties": { "ID": 301, "Area": "東部地區巡防局", "Name": "七七機動站", "Zip_code": 97449, "Address": "花蓮縣壽豐鄉鹽寮村9鄰大橋36號", "X": 121.605321, "Y": 23.923776, "Note": "n\/a", "Tel": "(03)8671045" }, "geometry": { "type": "Point", "coordinates": [ 121.605321, 23.923776 ] } },
{ "type": "Feature", "properties": { "ID": 302, "Area": "東部地區巡防局", "Name": "鹽寮安檢所", "Zip_code": 97449, "Address": "花蓮縣壽豐鄉鹽寮村橄樹腳46之1號", "X": 121.588371, "Y": 23.868793, "Note": "n\/a", "Tel": "(03)8671225" }, "geometry": { "type": "Point", "coordinates": [ 121.588371, 23.868793 ] } },
{ "type": "Feature", "properties": { "ID": 303, "Area": "東部地區巡防局", "Name": "磯崎安檢所", "Zip_code": 97791, "Address": "花蓮縣豐賓鄉磯崎村49之1號", "X": 121.548797, "Y": 23.702965, "Note": "n\/a", "Tel": "(03)8711231" }, "geometry": { "type": "Point", "coordinates": [ 121.548797, 23.702965 ] } }
]
}
